[
  {
    "id": "A.-Stuttg.-/Vaihinger Landstr.:9.12727:48.77748",
    "name": "A.-Stuttg.-/Vaihinger Landstr.",
    "districtId": "botnang",
    "latitude": 48.777477,
    "longitude": 9.12727,
    "source": "MobiData BW GTFS",
    "locationType": "stop",
    "platformCount": 1,
    "parentStationId": null
  },
  {
    "id": "Aalstraße:9.22118:48.84382",
    "name": "Aalstraße",
    "districtId": "muehlhausen",
    "latitude": 48.843822,
    "longitude": 9.221179,
    "source": "MobiData BW GTFS",
    "locationType": "stop",
    "platformCount": 1,
    "parentStationId": null
  },
  {
    "id": "Aalstraße:9.22139:48.84488",
    "name": "Aalstraße",
    "districtId": "muehlhausen",
    "latitude": 48.844883,
    "longitude": 9.221395,
    "source": "MobiData BW GTFS",
    "locationType": "stop",
    "platformCount": 1,
    "parentStationId": null
  },
  {
    "id": "Admiralweg:9.16605:48.84838",
    "name": "Admiralweg",
    "districtId": "stammheim",
    "latitude": 48.848377,
    "longitude": 9.16605,
    "source": "MobiData BW GTFS",
    "locationType": "stop",
    "platformCount": 1,
    "parentStationId": null
  },
  {
    "id": "Ährenweg:9.25240:48.75759",
    "name": "Ährenweg",
    "districtId": "hedelfingen",
    "latitude": 48.757587,
    "longitude": 9.252396,
    "source": "MobiData BW GTFS",
    "locationType": "stop",
    "platformCount": 1,
    "parentStationId": null
  },
  {
    "id": "Ährenweg:9.25192:48.75733",
    "name": "Ährenweg",
    "districtId": "hedelfingen",
    "latitude": 48.757328,
    "longitude": 9.25192,
    "source": "MobiData BW GTFS",
    "locationType": "stop",
    "platformCount": 1,
    "parentStationId": null
  },
  {
    "id": "Albblick:9.09427:48.72364",
    "name": "Albblick",
    "districtId": "vaihingen",
    "latitude": 48.723637,
    "longitude": 9.094265,
    "source": "MobiData BW GTFS",
    "locationType": "stop",
    "platformCount": 1,
    "parentStationId": null
  },
  {
    "id": "Albblick:9.09500:48.72385",
    "name": "Albblick",
    "districtId": "vaihingen",
    "latitude": 48.72385,
    "longitude": 9.095002,
    "source": "MobiData BW GTFS",
    "locationType": "stop",
    "platformCount": 1,
    "parentStationId": null
  },
  {
    "id": "Albert-Luthuli-Platz:9.18707:48.81576",
    "name": "Albert-Luthuli-Platz",
    "districtId": "bad-cannstatt",
    "latitude": 48.815758,
    "longitude": 9.187071,
    "source": "MobiData BW GTFS",
    "locationType": "stop",
    "platformCount": 1,
    "parentStationId": null
  },
  {
    "id": "Albert-Schäffle-Straße:9.20429:48.77196",
    "name": "Albert-Schäffle-Straße",
    "districtId": "ost",
    "latitude": 48.77196,
    "longitude": 9.204291,
    "source": "MobiData BW GTFS",
    "locationType": "stop",
    "platformCount": 1,
    "parentStationId": null
  },
  {
    "id": "Albert-Schäffle-Straße:9.20476:48.77151",
    "name": "Albert-Schäffle-Straße",
    "districtId": "ost",
    "latitude": 48.77151,
    "longitude": 9.204759,
    "source": "MobiData BW GTFS",
    "locationType": "stop",
    "platformCount": 1,
    "parentStationId": null
  },
  {
    "id": "Albschule Pos 1:9.16536:48.74261",
    "name": "Albschule Pos 1",
    "districtId": "degerloch",
    "latitude": 48.74261,
    "longitude": 9.165359,
    "source": "MobiData BW GTFS",
    "locationType": "stop",
    "platformCount": 1,
    "parentStationId": null
  },
  {
    "id": "Albschule Pos 2:9.16541:48.74301",
    "name": "Albschule Pos 2",
    "districtId": "degerloch",
    "latitude": 48.743008,
    "longitude": 9.165412,
    "source": "MobiData BW GTFS",
    "locationType": "stop",
    "platformCount": 1,
    "parentStationId": null
  },
  {
    "id": "Albschule Pos 3:9.16680:48.74171",
    "name": "Albschule Pos 3",
    "districtId": "degerloch",
    "latitude": 48.74171,
    "longitude": 9.166796,
    "source": "MobiData BW GTFS",
    "locationType": "stop",
    "platformCount": 1,
    "parentStationId": null
  },
  {
    "id": "Alpseeweg:9.22975:48.83367",
    "name": "Alpseeweg",
    "districtId": "muehlhausen",
    "latitude": 48.833668,
    "longitude": 9.22975,
    "source": "MobiData BW GTFS",
    "locationType": "stop",
    "platformCount": 1,
    "parentStationId": null
  },
  {
    "id": "Alpseeweg:9.22901:48.83348",
    "name": "Alpseeweg",
    "districtId": "muehlhausen",
    "latitude": 48.833477,
    "longitude": 9.2290125,
    "source": "MobiData BW GTFS",
    "locationType": "stop",
    "platformCount": 1,
    "parentStationId": null
  },
  {
    "id": "Alte Krone:9.25283:48.77918",
    "name": "Alte Krone",
    "districtId": "untertuerkheim",
    "latitude": 48.779182,
    "longitude": 9.252827,
    "source": "MobiData BW GTFS",
    "locationType": "stop",
    "platformCount": 1,
    "parentStationId": null
  },
  {
    "id": "Alte Stuttgarter-/Nöllenstr.:9.12495:48.77825",
    "name": "Alte Stuttgarter-/Nöllenstr.",
    "districtId": "botnang",
    "latitude": 48.77825,
    "longitude": 9.124952,
    "source": "MobiData BW GTFS",
    "locationType": "stop",
    "platformCount": 1,
    "parentStationId": null
  },
  {
    "id": "Altenbergstaffel:9.18173:48.75954",
    "name": "Altenbergstaffel",
    "districtId": "sued",
    "latitude": 48.759544,
    "longitude": 9.1817255,
    "source": "MobiData BW GTFS",
    "locationType": "stop",
    "platformCount": 2,
    "parentStationId": null
  },
  {
    "id": "Altenburg:9.20994:48.81136",
    "name": "Altenburg",
    "districtId": "bad-cannstatt",
    "latitude": 48.811363,
    "longitude": 9.209942,
    "source": "MobiData BW GTFS",
    "locationType": "stop",
    "platformCount": 1,
    "parentStationId": null
  },
  {
    "id": "Altenburg:9.21020:48.81210",
    "name": "Altenburg",
    "districtId": "bad-cannstatt",
    "latitude": 48.812103,
    "longitude": 9.210202,
    "source": "MobiData BW GTFS",
    "locationType": "stop",
    "platformCount": 1,
    "parentStationId": null
  },
  {
    "id": "Alter Gutshof:9.19064:48.81811",
    "name": "Alter Gutshof",
    "districtId": "bad-cannstatt",
    "latitude": 48.818108,
    "longitude": 9.190637,
    "source": "MobiData BW GTFS",
    "locationType": "stop",
    "platformCount": 1,
    "parentStationId": null
  },
  {
    "id": "Am Äußeren Graben:9.14585:48.85355",
    "name": "Am Äußeren Graben",
    "districtId": "stammheim",
    "latitude": 48.853546,
    "longitude": 9.145846,
    "source": "MobiData BW GTFS",
    "locationType": "stop",
    "platformCount": 1,
    "parentStationId": null
  },
  {
    "id": "Am Äußeren Graben:9.14564:48.85343",
    "name": "Am Äußeren Graben",
    "districtId": "stammheim",
    "latitude": 48.85343,
    "longitude": 9.14564,
    "source": "MobiData BW GTFS",
    "locationType": "stop",
    "platformCount": 1,
    "parentStationId": null
  },
  {
    "id": "Am Bergwald:9.24849:48.75617",
    "name": "Am Bergwald",
    "districtId": "hedelfingen",
    "latitude": 48.75617,
    "longitude": 9.248488,
    "source": "MobiData BW GTFS",
    "locationType": "stop",
    "platformCount": 1,
    "parentStationId": null
  },
  {
    "id": "Am Bergwald:9.24888:48.75608",
    "name": "Am Bergwald",
    "districtId": "hedelfingen",
    "latitude": 48.756084,
    "longitude": 9.248883,
    "source": "MobiData BW GTFS",
    "locationType": "stop",
    "platformCount": 1,
    "parentStationId": null
  },
  {
    "id": "Am Bismarckturm:9.15566:48.79225",
    "name": "Am Bismarckturm",
    "districtId": "nord",
    "latitude": 48.79225,
    "longitude": 9.155656,
    "source": "MobiData BW GTFS",
    "locationType": "stop",
    "platformCount": 1,
    "parentStationId": null
  },
  {
    "id": "Am Bismarckturm:9.15424:48.79192",
    "name": "Am Bismarckturm",
    "districtId": "nord",
    "latitude": 48.79192,
    "longitude": 9.154237,
    "source": "MobiData BW GTFS",
    "locationType": "stop",
    "platformCount": 1,
    "parentStationId": null
  },
  {
    "id": "Am Buberlesbach/G.-Mahler-Str.:9.12154:48.77674",
    "name": "Am Buberlesbach/G.-Mahler-Str.",
    "districtId": "botnang",
    "latitude": 48.776737,
    "longitude": 9.121538,
    "source": "MobiData BW GTFS",
    "locationType": "stop",
    "platformCount": 1,
    "parentStationId": null
  },
  {
    "id": "Am Feldrand:9.09784:48.73621",
    "name": "Am Feldrand",
    "districtId": "vaihingen",
    "latitude": 48.736206,
    "longitude": 9.09784,
    "source": "MobiData BW GTFS",
    "locationType": "stop",
    "platformCount": 1,
    "parentStationId": null
  },
  {
    "id": "Am Feldrand:9.09829:48.73596",
    "name": "Am Feldrand",
    "districtId": "vaihingen",
    "latitude": 48.735962,
    "longitude": 9.0982895,
    "source": "MobiData BW GTFS",
    "locationType": "stop",
    "platformCount": 1,
    "parentStationId": null
  },
  {
    "id": "Am Kirchplatz:9.15991:48.84867",
    "name": "Am Kirchplatz",
    "districtId": "stammheim",
    "latitude": 48.848667,
    "longitude": 9.159905,
    "source": "MobiData BW GTFS",
    "locationType": "stop",
    "platformCount": 1,
    "parentStationId": null
  },
  {
    "id": "Am Kriegsbergturm:9.17407:48.78994",
    "name": "Am Kriegsbergturm",
    "districtId": "nord",
    "latitude": 48.789944,
    "longitude": 9.174071,
    "source": "MobiData BW GTFS",
    "locationType": "stop",
    "platformCount": 1,
    "parentStationId": null
  },
  {
    "id": "Am Kriegsbergturm:9.17425:48.79007",
    "name": "Am Kriegsbergturm",
    "districtId": "nord",
    "latitude": 48.790066,
    "longitude": 9.174252,
    "source": "MobiData BW GTFS",
    "locationType": "stop",
    "platformCount": 1,
    "parentStationId": null
  },
  {
    "id": "Am Mittelkai:9.26553:48.75458",
    "name": "Am Mittelkai",
    "districtId": "hedelfingen",
    "latitude": 48.754585,
    "longitude": 9.26553,
    "source": "MobiData BW GTFS",
    "locationType": "stop",
    "platformCount": 1,
    "parentStationId": null
  },
  {
    "id": "Am Ochsenwald Pos 1:9.09158:48.72096",
    "name": "Am Ochsenwald Pos 1",
    "districtId": "vaihingen",
    "latitude": 48.72096,
    "longitude": 9.091579,
    "source": "MobiData BW GTFS",
    "locationType": "stop",
    "platformCount": 1,
    "parentStationId": null
  },
  {
    "id": "Am Ochsenwald Pos 2:9.09134:48.72042",
    "name": "Am Ochsenwald Pos 2",
    "districtId": "vaihingen",
    "latitude": 48.720425,
    "longitude": 9.091337,
    "source": "MobiData BW GTFS",
    "locationType": "stop",
    "platformCount": 1,
    "parentStationId": null
  },
  {
    "id": "Am Ochsenwald Pos 3:9.09199:48.72076",
    "name": "Am Ochsenwald Pos 3",
    "districtId": "vaihingen",
    "latitude": 48.720757,
    "longitude": 9.091992,
    "source": "MobiData BW GTFS",
    "locationType": "stop",
    "platformCount": 1,
    "parentStationId": null
  },
  {
    "id": "Am Römerkastell Pos 1:9.20892:48.81374",
    "name": "Am Römerkastell Pos 1",
    "districtId": "bad-cannstatt",
    "latitude": 48.81374,
    "longitude": 9.208918,
    "source": "MobiData BW GTFS",
    "locationType": "stop",
    "platformCount": 1,
    "parentStationId": null
  },
  {
    "id": "Am Römerkastell Pos 2:9.20796:48.81389",
    "name": "Am Römerkastell Pos 2",
    "districtId": "bad-cannstatt",
    "latitude": 48.81389,
    "longitude": 9.207965,
    "source": "MobiData BW GTFS",
    "locationType": "stop",
    "platformCount": 1,
    "parentStationId": null
  },
  {
    "id": "Am Römerkastell Pos 3:9.20863:48.81325",
    "name": "Am Römerkastell Pos 3",
    "districtId": "bad-cannstatt",
    "latitude": 48.81325,
    "longitude": 9.20863,
    "source": "MobiData BW GTFS",
    "locationType": "stop",
    "platformCount": 1,
    "parentStationId": null
  },
  {
    "id": "Am Schattwald Bstg 3:9.08354:48.75215",
    "name": "Am Schattwald Bstg 3",
    "districtId": "vaihingen",
    "latitude": 48.75215,
    "longitude": 9.08354,
    "source": "MobiData BW GTFS",
    "locationType": "stop",
    "platformCount": 1,
    "parentStationId": null
  },
  {
    "id": "Am Schattwald Bstg 4:9.08389:48.75112",
    "name": "Am Schattwald Bstg 4",
    "districtId": "vaihingen",
    "latitude": 48.751118,
    "longitude": 9.08389,
    "source": "MobiData BW GTFS",
    "locationType": "stop",
    "platformCount": 1,
    "parentStationId": null
  },
  {
    "id": "Amstetter Straße:9.25692:48.75689",
    "name": "Amstetter Straße",
    "districtId": "hedelfingen",
    "latitude": 48.75689,
    "longitude": 9.256924,
    "source": "MobiData BW GTFS",
    "locationType": "stop",
    "platformCount": 1,
    "parentStationId": null
  },
  {
    "id": "Amstetter Straße:9.25704:48.75668",
    "name": "Amstetter Straße",
    "districtId": "hedelfingen",
    "latitude": 48.756676,
    "longitude": 9.25704,
    "source": "MobiData BW GTFS",
    "locationType": "stop",
    "platformCount": 1,
    "parentStationId": null
  },
  {
    "id": "Antwerpener Straße:9.24293:48.80843",
    "name": "Antwerpener Straße",
    "districtId": "bad-cannstatt",
    "latitude": 48.808434,
    "longitude": 9.242928,
    "source": "MobiData BW GTFS",
    "locationType": "stop",
    "platformCount": 1,
    "parentStationId": null
  },
  {
    "id": "Antwerpener Straße:9.24295:48.80839",
    "name": "Antwerpener Straße",
    "districtId": "bad-cannstatt",
    "latitude": 48.80839,
    "longitude": 9.242946,
    "source": "MobiData BW GTFS",
    "locationType": "stop",
    "platformCount": 1,
    "parentStationId": null
  },
  {
    "id": "Antwerpener Straße:9.24274:48.80848",
    "name": "Antwerpener Straße",
    "districtId": "bad-cannstatt",
    "latitude": 48.808475,
    "longitude": 9.242739,
    "source": "MobiData BW GTFS",
    "locationType": "stop",
    "platformCount": 1,
    "parentStationId": null
  },
  {
    "id": "Arndt-/Spittastraße:9.15079:48.77488",
    "name": "Arndt-/Spittastraße",
    "districtId": "west",
    "latitude": 48.77488,
    "longitude": 9.150787,
    "source": "MobiData BW GTFS",
    "locationType": "stop",
    "platformCount": 1,
    "parentStationId": null
  },
  {
    "id": "Arndt-/Spittastraße:9.15079:48.77485",
    "name": "Arndt-/Spittastraße",
    "districtId": "west",
    "latitude": 48.77485,
    "longitude": 9.150787,
    "source": "MobiData BW GTFS",
    "locationType": "stop",
    "platformCount": 1,
    "parentStationId": null
  },
  {
    "id": "Arndt-/Spittastraße:9.15073:48.77496",
    "name": "Arndt-/Spittastraße",
    "districtId": "west",
    "latitude": 48.774956,
    "longitude": 9.150734,
    "source": "MobiData BW GTFS",
    "locationType": "stop",
    "platformCount": 1,
    "parentStationId": null
  },
  {
    "id": "Asang:9.27398:48.77076",
    "name": "Asang",
    "districtId": "obertuerkheim",
    "latitude": 48.770763,
    "longitude": 9.273982,
    "source": "MobiData BW GTFS",
    "locationType": "stop",
    "platformCount": 1,
    "parentStationId": null
  },
  {
    "id": "Asang:9.27426:48.77087",
    "name": "Asang",
    "districtId": "obertuerkheim",
    "latitude": 48.770866,
    "longitude": 9.2742605,
    "source": "MobiData BW GTFS",
    "locationType": "stop",
    "platformCount": 1,
    "parentStationId": null
  },
  {
    "id": "Asemwald:9.19241:48.72625",
    "name": "Asemwald",
    "districtId": "plieningen",
    "latitude": 48.726246,
    "longitude": 9.192407,
    "source": "MobiData BW GTFS",
    "locationType": "stop",
    "platformCount": 2,
    "parentStationId": null
  },
  {
    "id": "Aspen:9.26751:48.78688",
    "name": "Aspen",
    "districtId": "untertuerkheim",
    "latitude": 48.786884,
    "longitude": 9.267514,
    "source": "MobiData BW GTFS",
    "locationType": "stop",
    "platformCount": 1,
    "parentStationId": null
  },
  {
    "id": "Aspen:9.26725:48.78688",
    "name": "Aspen",
    "districtId": "untertuerkheim",
    "latitude": 48.786884,
    "longitude": 9.267254,
    "source": "MobiData BW GTFS",
    "locationType": "stop",
    "platformCount": 1,
    "parentStationId": null
  },
  {
    "id": "Aspenwald-/Kullenbergstr.:9.12253:48.77428",
    "name": "Aspenwald-/Kullenbergstr.",
    "districtId": "botnang",
    "latitude": 48.77428,
    "longitude": 9.122526,
    "source": "MobiData BW GTFS",
    "locationType": "stop",
    "platformCount": 1,
    "parentStationId": null
  },
  {
    "id": "Aspenwaldstraße:9.12594:48.77374",
    "name": "Aspenwaldstraße",
    "districtId": "botnang",
    "latitude": 48.773735,
    "longitude": 9.12594,
    "source": "MobiData BW GTFS",
    "locationType": "stop",
    "platformCount": 1,
    "parentStationId": null
  },
  {
    "id": "Aspenwaldstraße:9.12625:48.77379",
    "name": "Aspenwaldstraße",
    "districtId": "botnang",
    "latitude": 48.77379,
    "longitude": 9.126254,
    "source": "MobiData BW GTFS",
    "locationType": "stop",
    "platformCount": 1,
    "parentStationId": null
  },
  {
    "id": "Asperger Straße Pos 1:9.15558:48.85264",
    "name": "Asperger Straße Pos 1",
    "districtId": "stammheim",
    "latitude": 48.85264,
    "longitude": 9.155584,
    "source": "MobiData BW GTFS",
    "locationType": "stop",
    "platformCount": 1,
    "parentStationId": null
  },
  {
    "id": "Asperger Straße Pos 2:9.15545:48.85261",
    "name": "Asperger Straße Pos 2",
    "districtId": "stammheim",
    "latitude": 48.852608,
    "longitude": 9.15545,
    "source": "MobiData BW GTFS",
    "locationType": "stop",
    "platformCount": 1,
    "parentStationId": null
  },
  {
    "id": "Asperger Straße Pos 3:9.15477:48.85284",
    "name": "Asperger Straße Pos 3",
    "districtId": "stammheim",
    "latitude": 48.852844,
    "longitude": 9.154767,
    "source": "MobiData BW GTFS",
    "locationType": "stop",
    "platformCount": 1,
    "parentStationId": null
  },
  {
    "id": "Auberlen-/Brahmsweg:9.13223:48.77442",
    "name": "Auberlen-/Brahmsweg",
    "districtId": "botnang",
    "latitude": 48.774418,
    "longitude": 9.132228,
    "source": "MobiData BW GTFS",
    "locationType": "stop",
    "platformCount": 1,
    "parentStationId": null
  },
  {
    "id": "Auberlenweg:9.13049:48.77383",
    "name": "Auberlenweg",
    "districtId": "botnang",
    "latitude": 48.773827,
    "longitude": 9.130486,
    "source": "MobiData BW GTFS",
    "locationType": "stop",
    "platformCount": 1,
    "parentStationId": null
  },
  {
    "id": "Auberlenweg:9.12964:48.77370",
    "name": "Auberlenweg",
    "districtId": "botnang",
    "latitude": 48.7737,
    "longitude": 9.129642,
    "source": "MobiData BW GTFS",
    "locationType": "stop",
    "platformCount": 1,
    "parentStationId": null
  },
  {
    "id": "Auf der Gans:9.24158:48.81853",
    "name": "Auf der Gans",
    "districtId": "bad-cannstatt",
    "latitude": 48.81853,
    "longitude": 9.24158,
    "source": "MobiData BW GTFS",
    "locationType": "stop",
    "platformCount": 1,
    "parentStationId": null
  },
  {
    "id": "Auf der Gans:9.24248:48.81889",
    "name": "Auf der Gans",
    "districtId": "bad-cannstatt",
    "latitude": 48.818893,
    "longitude": 9.242478,
    "source": "MobiData BW GTFS",
    "locationType": "stop",
    "platformCount": 1,
    "parentStationId": null
  },
  {
    "id": "Augsburger Platz:9.23058:48.80608",
    "name": "Augsburger Platz",
    "districtId": "bad-cannstatt",
    "latitude": 48.806084,
    "longitude": 9.230576,
    "source": "MobiData BW GTFS",
    "locationType": "stop",
    "platformCount": 1,
    "parentStationId": null
  },
  {
    "id": "Augsburger Platz:9.23252:48.80594",
    "name": "Augsburger Platz",
    "districtId": "bad-cannstatt",
    "latitude": 48.80594,
    "longitude": 9.232516,
    "source": "MobiData BW GTFS",
    "locationType": "stop",
    "platformCount": 1,
    "parentStationId": null
  },
  {
    "id": "Augsburger Platz:9.23254:48.80590",
    "name": "Augsburger Platz",
    "districtId": "bad-cannstatt",
    "latitude": 48.8059,
    "longitude": 9.232543,
    "source": "MobiData BW GTFS",
    "locationType": "stop",
    "platformCount": 1,
    "parentStationId": null
  },
  {
    "id": "Augustinum:9.21440:48.73909",
    "name": "Augustinum",
    "districtId": "sillenbuch",
    "latitude": 48.739086,
    "longitude": 9.214397,
    "source": "MobiData BW GTFS",
    "locationType": "stop",
    "platformCount": 1,
    "parentStationId": null
  },
  {
    "id": "Augustinum:9.21454:48.73953",
    "name": "Augustinum",
    "districtId": "sillenbuch",
    "latitude": 48.739525,
    "longitude": 9.2145405,
    "source": "MobiData BW GTFS",
    "locationType": "stop",
    "platformCount": 1,
    "parentStationId": null
  },
  {
    "id": "Austraße:9.22086:48.82386",
    "name": "Austraße",
    "districtId": "muenster",
    "latitude": 48.823856,
    "longitude": 9.220865,
    "source": "MobiData BW GTFS",
    "locationType": "stop",
    "platformCount": 1,
    "parentStationId": null
  },
  {
    "id": "Auwiesen:9.22488:48.83945",
    "name": "Auwiesen",
    "districtId": "muehlhausen",
    "latitude": 48.839447,
    "longitude": 9.22488,
    "source": "MobiData BW GTFS",
    "locationType": "station",
    "platformCount": 1,
    "parentStationId": null
  },
  {
    "id": "de:08111:271_Parent",
    "name": "Auwiesen",
    "districtId": "muehlhausen",
    "latitude": 48.839466,
    "longitude": 9.2248535,
    "source": "MobiData BW GTFS",
    "locationType": "stop",
    "platformCount": 4,
    "parentStationId": "de:08111:271_Parent"
  },
  {
    "id": "Bachhalde:9.22785:48.84554",
    "name": "Bachhalde",
    "districtId": "muehlhausen",
    "latitude": 48.845543,
    "longitude": 9.227854,
    "source": "MobiData BW GTFS",
    "locationType": "stop",
    "platformCount": 1,
    "parentStationId": null
  },
  {
    "id": "Bachhalde:9.22777:48.84547",
    "name": "Bachhalde",
    "districtId": "muehlhausen",
    "latitude": 48.845474,
    "longitude": 9.227773,
    "source": "MobiData BW GTFS",
    "locationType": "stop",
    "platformCount": 1,
    "parentStationId": null
  },
  {
    "id": "Bächlenweg:9.24666:48.75738",
    "name": "Bächlenweg",
    "districtId": "hedelfingen",
    "latitude": 48.75738,
    "longitude": 9.246655,
    "source": "MobiData BW GTFS",
    "locationType": "stop",
    "platformCount": 1,
    "parentStationId": null
  },
  {
    "id": "Bächlenweg:9.24681:48.75727",
    "name": "Bächlenweg",
    "districtId": "hedelfingen",
    "latitude": 48.757275,
    "longitude": 9.246808,
    "source": "MobiData BW GTFS",
    "locationType": "stop",
    "platformCount": 1,
    "parentStationId": null
  },
  {
    "id": "Bad Cannstatt:9.21747:48.80128",
    "name": "Bad Cannstatt",
    "districtId": "bad-cannstatt",
    "latitude": 48.80128,
    "longitude": 9.217469,
    "source": "MobiData BW GTFS",
    "locationType": "station",
    "platformCount": 1,
    "parentStationId": null
  },
  {
    "id": "de:08111:6333_Parent",
    "name": "Bad Cannstatt",
    "districtId": "bad-cannstatt",
    "latitude": 48.80129,
    "longitude": 9.217469,
    "source": "MobiData BW GTFS",
    "locationType": "stop",
    "platformCount": 12,
    "parentStationId": "de:08111:6333_Parent"
  },
  {
    "id": "Bad Cannstatt Wilhelmsplatz:9.21576:48.80277",
    "name": "Bad Cannstatt Wilhelmsplatz",
    "districtId": "bad-cannstatt",
    "latitude": 48.802765,
    "longitude": 9.215762,
    "source": "MobiData BW GTFS",
    "locationType": "station",
    "platformCount": 1,
    "parentStationId": null
  },
  {
    "id": "de:08111:6332_Parent",
    "name": "Bad Cannstatt Wilhelmsplatz",
    "districtId": "bad-cannstatt",
    "latitude": 48.802776,
    "longitude": 9.215762,
    "source": "MobiData BW GTFS",
    "locationType": "stop",
    "platformCount": 6,
    "parentStationId": "de:08111:6332_Parent"
  },
  {
    "id": "Banzhaldenstraße:9.14234:48.80610",
    "name": "Banzhaldenstraße",
    "districtId": "feuerbach",
    "latitude": 48.806103,
    "longitude": 9.1423435,
    "source": "MobiData BW GTFS",
    "locationType": "stop",
    "platformCount": 1,
    "parentStationId": null
  },
  {
    "id": "Baumgartenweg:9.21810:48.74840",
    "name": "Baumgartenweg",
    "districtId": "sillenbuch",
    "latitude": 48.7484,
    "longitude": 9.218099,
    "source": "MobiData BW GTFS",
    "locationType": "stop",
    "platformCount": 1,
    "parentStationId": null
  },
  {
    "id": "Beethovenstraße:9.13333:48.77722",
    "name": "Beethovenstraße",
    "districtId": "west",
    "latitude": 48.777218,
    "longitude": 9.133333,
    "source": "MobiData BW GTFS",
    "locationType": "station",
    "platformCount": 1,
    "parentStationId": null
  },
  {
    "id": "de:08111:212_Parent",
    "name": "Beethovenstraße",
    "districtId": "west",
    "latitude": 48.77721,
    "longitude": 9.133378,
    "source": "MobiData BW GTFS",
    "locationType": "stop",
    "platformCount": 4,
    "parentStationId": "de:08111:212_Parent"
  },
  {
    "id": "Beilsteiner Straße:9.17726:48.83342",
    "name": "Beilsteiner Straße",
    "districtId": "zuffenhausen",
    "latitude": 48.833416,
    "longitude": 9.17726,
    "source": "MobiData BW GTFS",
    "locationType": "stop",
    "platformCount": 1,
    "parentStationId": null
  },
  {
    "id": "Belaustr. (Wendeplatte):9.11678:48.77782",
    "name": "Belaustr. (Wendeplatte)",
    "districtId": "botnang",
    "latitude": 48.777817,
    "longitude": 9.116777,
    "source": "MobiData BW GTFS",
    "locationType": "stop",
    "platformCount": 1,
    "parentStationId": null
  },
  {
    "id": "Bergfriedhof:9.20497:48.78910",
    "name": "Bergfriedhof",
    "districtId": "ost",
    "latitude": 48.789104,
    "longitude": 9.204974,
    "source": "MobiData BW GTFS",
    "locationType": "stop",
    "platformCount": 1,
    "parentStationId": null
  },
  {
    "id": "Bergfriedhof:9.20612:48.78902",
    "name": "Bergfriedhof",
    "districtId": "ost",
    "latitude": 48.789024,
    "longitude": 9.206123,
    "source": "MobiData BW GTFS",
    "locationType": "stop",
    "platformCount": 1,
    "parentStationId": null
  },
  {
    "id": "Bergfriedhof:9.20655:48.78896",
    "name": "Bergfriedhof",
    "districtId": "ost",
    "latitude": 48.78896,
    "longitude": 9.206546,
    "source": "MobiData BW GTFS",
    "locationType": "stop",
    "platformCount": 1,
    "parentStationId": null
  },
  {
    "id": "Berghaustraße:9.10542:48.71445",
    "name": "Berghaustraße",
    "districtId": "vaihingen",
    "latitude": 48.714447,
    "longitude": 9.105423,
    "source": "MobiData BW GTFS",
    "locationType": "stop",
    "platformCount": 1,
    "parentStationId": null
  },
  {
    "id": "Berghaustraße:9.10548:48.71466",
    "name": "Berghaustraße",
    "districtId": "vaihingen",
    "latitude": 48.71466,
    "longitude": 9.105476,
    "source": "MobiData BW GTFS",
    "locationType": "stop",
    "platformCount": 1,
    "parentStationId": null
  },
  {
    "id": "Bergheimer Hof:9.10109:48.80418",
    "name": "Bergheimer Hof",
    "districtId": "weilimdorf",
    "latitude": 48.804176,
    "longitude": 9.101092,
    "source": "MobiData BW GTFS",
    "locationType": "stop",
    "platformCount": 1,
    "parentStationId": null
  },
  {
    "id": "Bergheimer Hof:9.10107:48.80421",
    "name": "Bergheimer Hof",
    "districtId": "weilimdorf",
    "latitude": 48.80421,
    "longitude": 9.101074,
    "source": "MobiData BW GTFS",
    "locationType": "stop",
    "platformCount": 1,
    "parentStationId": null
  },
  {
    "id": "Bergheimer Hof:9.10080:48.80399",
    "name": "Bergheimer Hof",
    "districtId": "weilimdorf",
    "latitude": 48.803986,
    "longitude": 9.100805,
    "source": "MobiData BW GTFS",
    "locationType": "stop",
    "platformCount": 1,
    "parentStationId": null
  },
  {
    "id": "Bergstaffelstraße:9.26592:48.76554",
    "name": "Bergstaffelstraße",
    "districtId": "obertuerkheim",
    "latitude": 48.76554,
    "longitude": 9.265916,
    "source": "MobiData BW GTFS",
    "locationType": "stop",
    "platformCount": 1,
    "parentStationId": null
  },
  {
    "id": "Bergstaffelstraße:9.26609:48.76553",
    "name": "Bergstaffelstraße",
    "districtId": "obertuerkheim",
    "latitude": 48.765526,
    "longitude": 9.266095,
    "source": "MobiData BW GTFS",
    "locationType": "stop",
    "platformCount": 1,
    "parentStationId": null
  },
  {
    "id": "Berliner Platz (Hohe Straße):9.16857:48.77713",
    "name": "Berliner Platz (Hohe Straße)",
    "districtId": "mitte",
    "latitude": 48.777134,
    "longitude": 9.168574,
    "source": "MobiData BW GTFS",
    "locationType": "station",
    "platformCount": 1,
    "parentStationId": null
  },
  {
    "id": "de:08111:55_Parent",
    "name": "Berliner Platz (Hohe Straße)",
    "districtId": "mitte",
    "latitude": 48.777134,
    "longitude": 9.168601,
    "source": "MobiData BW GTFS",
    "locationType": "stop",
    "platformCount": 5,
    "parentStationId": "de:08111:55_Parent"
  },
  {
    "id": "Berliner Platz (Liederhalle):9.16785:48.77837",
    "name": "Berliner Platz (Liederhalle)",
    "districtId": "mitte",
    "latitude": 48.77837,
    "longitude": 9.167855,
    "source": "MobiData BW GTFS",
    "locationType": "station",
    "platformCount": 1,
    "parentStationId": null
  },
  {
    "id": "de:08111:6073_Parent",
    "name": "Berliner Platz (Liederhalle)",
    "districtId": "mitte",
    "latitude": 48.778572,
    "longitude": 9.169122,
    "source": "MobiData BW GTFS",
    "locationType": "stop",
    "platformCount": 6,
    "parentStationId": "de:08111:6073_Parent"
  },
  {
    "id": "Bernhäuser Straße:9.21549:48.69883",
    "name": "Bernhäuser Straße",
    "districtId": "plieningen",
    "latitude": 48.698826,
    "longitude": 9.215493,
    "source": "MobiData BW GTFS",
    "locationType": "stop",
    "platformCount": 1,
    "parentStationId": null
  },
  {
    "id": "Bernhäuser Straße:9.21555:48.69942",
    "name": "Bernhäuser Straße",
    "districtId": "plieningen",
    "latitude": 48.699417,
    "longitude": 9.215547,
    "source": "MobiData BW GTFS",
    "locationType": "stop",
    "platformCount": 1,
    "parentStationId": null
  },
  {
    "id": "Bernsteinstraße:9.22368:48.73648",
    "name": "Bernsteinstraße",
    "districtId": "sillenbuch",
    "latitude": 48.736477,
    "longitude": 9.223685,
    "source": "MobiData BW GTFS",
    "locationType": "stop",
    "platformCount": 1,
    "parentStationId": null
  },
  {
    "id": "Bernsteinstraße:9.22432:48.73612",
    "name": "Bernsteinstraße",
    "districtId": "sillenbuch",
    "latitude": 48.736122,
    "longitude": 9.224315,
    "source": "MobiData BW GTFS",
    "locationType": "stop",
    "platformCount": 1,
    "parentStationId": null
  },
  {
    "id": "Bertastraße:9.16508:48.82332",
    "name": "Bertastraße",
    "districtId": "feuerbach",
    "latitude": 48.82332,
    "longitude": 9.16508,
    "source": "MobiData BW GTFS",
    "locationType": "stop",
    "platformCount": 1,
    "parentStationId": null
  },
  {
    "id": "Berufsbildungszentrum:9.12298:48.72397",
    "name": "Berufsbildungszentrum",
    "districtId": "moehringen",
    "latitude": 48.72397,
    "longitude": 9.122985,
    "source": "MobiData BW GTFS",
    "locationType": "stop",
    "platformCount": 1,
    "parentStationId": null
  },
  {
    "id": "Berufsbildungszentrum:9.12219:48.72390",
    "name": "Berufsbildungszentrum",
    "districtId": "vaihingen",
    "latitude": 48.723904,
    "longitude": 9.122194,
    "source": "MobiData BW GTFS",
    "locationType": "stop",
    "platformCount": 1,
    "parentStationId": null
  },
  {
    "id": "Beskidenstraße:9.25379:48.81020",
    "name": "Beskidenstraße",
    "districtId": "bad-cannstatt",
    "latitude": 48.810196,
    "longitude": 9.253788,
    "source": "MobiData BW GTFS",
    "locationType": "stop",
    "platformCount": 1,
    "parentStationId": null
  },
  {
    "id": "Beskidenstraße:9.25381:48.81016",
    "name": "Beskidenstraße",
    "districtId": "bad-cannstatt",
    "latitude": 48.81016,
    "longitude": 9.253806,
    "source": "MobiData BW GTFS",
    "locationType": "stop",
    "platformCount": 1,
    "parentStationId": null
  },
  {
    "id": "Beskidenstraße:9.25328:48.81020",
    "name": "Beskidenstraße",
    "districtId": "bad-cannstatt",
    "latitude": 48.810196,
    "longitude": 9.253276,
    "source": "MobiData BW GTFS",
    "locationType": "stop",
    "platformCount": 1,
    "parentStationId": null
  },
  {
    "id": "Bieler Weg:9.21494:48.73698",
    "name": "Bieler Weg",
    "districtId": "sillenbuch",
    "latitude": 48.73698,
    "longitude": 9.214936,
    "source": "MobiData BW GTFS",
    "locationType": "stop",
    "platformCount": 1,
    "parentStationId": null
  },
  {
    "id": "Bihlplatz:9.15068:48.75931",
    "name": "Bihlplatz",
    "districtId": "sued",
    "latitude": 48.75931,
    "longitude": 9.15068,
    "source": "MobiData BW GTFS",
    "locationType": "stop",
    "platformCount": 1,
    "parentStationId": null
  },
  {
    "id": "Bihlplatz:9.15220:48.76013",
    "name": "Bihlplatz",
    "districtId": "sued",
    "latitude": 48.760128,
    "longitude": 9.152198,
    "source": "MobiData BW GTFS",
    "locationType": "stop",
    "platformCount": 1,
    "parentStationId": null
  },
  {
    "id": "Birkach Friedhof:9.20793:48.71920",
    "name": "Birkach Friedhof",
    "districtId": "birkach",
    "latitude": 48.7192,
    "longitude": 9.20793,
    "source": "MobiData BW GTFS",
    "locationType": "stop",
    "platformCount": 1,
    "parentStationId": null
  },
  {
    "id": "Birkach Friedhof:9.20815:48.71936",
    "name": "Birkach Friedhof",
    "districtId": "birkach",
    "latitude": 48.71936,
    "longitude": 9.208145,
    "source": "MobiData BW GTFS",
    "locationType": "stop",
    "platformCount": 1,
    "parentStationId": null
  },
  {
    "id": "Birkach West:9.20229:48.72598",
    "name": "Birkach West",
    "districtId": "birkach",
    "latitude": 48.72598,
    "longitude": 9.202288,
    "source": "MobiData BW GTFS",
    "locationType": "stop",
    "platformCount": 1,
    "parentStationId": null
  },
  {
    "id": "Birkach West:9.20227:48.72613",
    "name": "Birkach West",
    "districtId": "birkach",
    "latitude": 48.72613,
    "longitude": 9.20227,
    "source": "MobiData BW GTFS",
    "locationType": "stop",
    "platformCount": 1,
    "parentStationId": null
  },
  {
    "id": "Birkacher Straße:9.21114:48.72655",
    "name": "Birkacher Straße",
    "districtId": "birkach",
    "latitude": 48.726547,
    "longitude": 9.211136,
    "source": "MobiData BW GTFS",
    "locationType": "stop",
    "platformCount": 1,
    "parentStationId": null
  },
  {
    "id": "Birkacher Straße:9.21136:48.72732",
    "name": "Birkacher Straße",
    "districtId": "sillenbuch",
    "latitude": 48.727318,
    "longitude": 9.211361,
    "source": "MobiData BW GTFS",
    "locationType": "stop",
    "platformCount": 1,
    "parentStationId": null
  },
  {
    "id": "Birkenkopf:9.13538:48.76474",
    "name": "Birkenkopf",
    "districtId": "west",
    "latitude": 48.764744,
    "longitude": 9.135382,
    "source": "MobiData BW GTFS",
    "locationType": "stop",
    "platformCount": 1,
    "parentStationId": null
  },
  {
    "id": "Birkenkopf:9.13537:48.76459",
    "name": "Birkenkopf",
    "districtId": "west",
    "latitude": 48.764587,
    "longitude": 9.135372,
    "source": "MobiData BW GTFS",
    "locationType": "stop",
    "platformCount": 1,
    "parentStationId": null
  },
  {
    "id": "Birkheckenstraße:9.20793:48.72295",
    "name": "Birkheckenstraße",
    "districtId": "birkach",
    "latitude": 48.722946,
    "longitude": 9.20793,
    "source": "MobiData BW GTFS",
    "locationType": "stop",
    "platformCount": 1,
    "parentStationId": null
  },
  {
    "id": "Birkheckenstraße:9.20715:48.72375",
    "name": "Birkheckenstraße",
    "districtId": "birkach",
    "latitude": 48.72375,
    "longitude": 9.207148,
    "source": "MobiData BW GTFS",
    "locationType": "stop",
    "platformCount": 1,
    "parentStationId": null
  },
  {
    "id": "Bismarckplatz:9.15612:48.77335",
    "name": "Bismarckplatz",
    "districtId": "west",
    "latitude": 48.77335,
    "longitude": 9.156123,
    "source": "MobiData BW GTFS",
    "locationType": "stop",
    "platformCount": 1,
    "parentStationId": null
  },
  {
    "id": "Bismarckplatz:9.15611:48.77405",
    "name": "Bismarckplatz",
    "districtId": "west",
    "latitude": 48.77405,
    "longitude": 9.156115,
    "source": "MobiData BW GTFS",
    "locationType": "stop",
    "platformCount": 1,
    "parentStationId": null
  },
  {
    "id": "Bismarckstaffel:9.14681:48.76974",
    "name": "Bismarckstaffel",
    "districtId": "west",
    "latitude": 48.76974,
    "longitude": 9.146808,
    "source": "MobiData BW GTFS",
    "locationType": "stop",
    "platformCount": 1,
    "parentStationId": null
  },
  {
    "id": "Bismarckstaffel:9.14700:48.76946",
    "name": "Bismarckstaffel",
    "districtId": "west",
    "latitude": 48.769463,
    "longitude": 9.1469965,
    "source": "MobiData BW GTFS",
    "locationType": "stop",
    "platformCount": 1,
    "parentStationId": null
  },
  {
    "id": "Blick:9.24181:48.79350",
    "name": "Blick",
    "districtId": "untertuerkheim",
    "latitude": 48.7935,
    "longitude": 9.241814,
    "source": "MobiData BW GTFS",
    "locationType": "stop",
    "platformCount": 1,
    "parentStationId": null
  },
  {
    "id": "Blick:9.24237:48.79294",
    "name": "Blick",
    "districtId": "untertuerkheim",
    "latitude": 48.79294,
    "longitude": 9.242371,
    "source": "MobiData BW GTFS",
    "locationType": "stop",
    "platformCount": 1,
    "parentStationId": null
  },
  {
    "id": "Bopser:9.18369:48.76794",
    "name": "Bopser",
    "districtId": "mitte",
    "latitude": 48.76794,
    "longitude": 9.183693,
    "source": "MobiData BW GTFS",
    "locationType": "station",
    "platformCount": 1,
    "parentStationId": null
  },
  {
    "id": "de:08111:6160_Parent",
    "name": "Bopser",
    "districtId": "mitte",
    "latitude": 48.76796,
    "longitude": 9.183693,
    "source": "MobiData BW GTFS",
    "locationType": "stop",
    "platformCount": 4,
    "parentStationId": "de:08111:6160_Parent"
  },
  {
    "id": "Borkumstraße (Neuw.-siedl.) Pos 1:9.14437:48.83487",
    "name": "Borkumstraße (Neuw.-siedl.) Pos 1",
    "districtId": "zuffenhausen",
    "latitude": 48.834873,
    "longitude": 9.144373,
    "source": "MobiData BW GTFS",
    "locationType": "stop",
    "platformCount": 1,
    "parentStationId": null
  },
  {
    "id": "Borkumstraße (Neuw.-siedl.) Pos 2:9.14425:48.83492",
    "name": "Borkumstraße (Neuw.-siedl.) Pos 2",
    "districtId": "zuffenhausen",
    "latitude": 48.83492,
    "longitude": 9.144248,
    "source": "MobiData BW GTFS",
    "locationType": "stop",
    "platformCount": 1,
    "parentStationId": null
  },
  {
    "id": "Börsenplatz:9.17635:48.78015",
    "name": "Börsenplatz",
    "districtId": "mitte",
    "latitude": 48.78015,
    "longitude": 9.176353,
    "source": "MobiData BW GTFS",
    "locationType": "stop",
    "platformCount": 1,
    "parentStationId": null
  },
  {
    "id": "Börsenplatz:9.17638:48.78013",
    "name": "Börsenplatz",
    "districtId": "mitte",
    "latitude": 48.78013,
    "longitude": 9.17638,
    "source": "MobiData BW GTFS",
    "locationType": "stop",
    "platformCount": 1,
    "parentStationId": null
  },
  {
    "id": "Borsigstraße:9.17545:48.81939",
    "name": "Borsigstraße",
    "districtId": "feuerbach",
    "latitude": 48.81939,
    "longitude": 9.1754465,
    "source": "MobiData BW GTFS",
    "locationType": "stop",
    "platformCount": 1,
    "parentStationId": null
  },
  {
    "id": "Borsigstraße:9.17550:48.81940",
    "name": "Borsigstraße",
    "districtId": "feuerbach",
    "latitude": 48.8194,
    "longitude": 9.1755,
    "source": "MobiData BW GTFS",
    "locationType": "stop",
    "platformCount": 1,
    "parentStationId": null
  },
  {
    "id": "Borsigstraße:9.17540:48.81894",
    "name": "Borsigstraße",
    "districtId": "feuerbach",
    "latitude": 48.81894,
    "longitude": 9.175401,
    "source": "MobiData BW GTFS",
    "locationType": "stop",
    "platformCount": 1,
    "parentStationId": null
  },
  {
    "id": "Botnang:9.12218:48.77867",
    "name": "Botnang",
    "districtId": "botnang",
    "latitude": 48.778667,
    "longitude": 9.122185,
    "source": "MobiData BW GTFS",
    "locationType": "stop",
    "platformCount": 1,
    "parentStationId": null
  },
  {
    "id": "Botnang:9.12218:48.77850",
    "name": "Botnang",
    "districtId": "botnang",
    "latitude": 48.778503,
    "longitude": 9.122185,
    "source": "MobiData BW GTFS",
    "locationType": "stop",
    "platformCount": 1,
    "parentStationId": null
  },
  {
    "id": "Botnang:9.12289:48.77889",
    "name": "Botnang",
    "districtId": "botnang",
    "latitude": 48.778885,
    "longitude": 9.122886,
    "source": "MobiData BW GTFS",
    "locationType": "stop",
    "platformCount": 1,
    "parentStationId": null
  },
  {
    "id": "Botnang Freibad:9.13291:48.78630",
    "name": "Botnang Freibad",
    "districtId": "botnang",
    "latitude": 48.786304,
    "longitude": 9.132911,
    "source": "MobiData BW GTFS",
    "locationType": "stop",
    "platformCount": 1,
    "parentStationId": null
  },
  {
    "id": "Botnang Freibad:9.13320:48.78646",
    "name": "Botnang Freibad",
    "districtId": "botnang",
    "latitude": 48.786457,
    "longitude": 9.133199,
    "source": "MobiData BW GTFS",
    "locationType": "stop",
    "platformCount": 1,
    "parentStationId": null
  },
  {
    "id": "Botnang Ortsmitte:9.12754:48.77838",
    "name": "Botnang Ortsmitte",
    "districtId": "botnang",
    "latitude": 48.778378,
    "longitude": 9.127539,
    "source": "MobiData BW GTFS",
    "locationType": "stop",
    "platformCount": 1,
    "parentStationId": null
  },
  {
    "id": "Botnanger Sattel:9.13693:48.77408",
    "name": "Botnanger Sattel",
    "districtId": "west",
    "latitude": 48.774075,
    "longitude": 9.136935,
    "source": "MobiData BW GTFS",
    "locationType": "stop",
    "platformCount": 1,
    "parentStationId": null
  },
  {
    "id": "Botnanger Sattel:9.13676:48.77414",
    "name": "Botnanger Sattel",
    "districtId": "west",
    "latitude": 48.77414,
    "longitude": 9.136756,
    "source": "MobiData BW GTFS",
    "locationType": "stop",
    "platformCount": 1,
    "parentStationId": null
  },
  {
    "id": "Bottroper Straße:9.21007:48.82095",
    "name": "Bottroper Straße",
    "districtId": "muenster",
    "latitude": 48.82095,
    "longitude": 9.210067,
    "source": "MobiData BW GTFS",
    "locationType": "station",
    "platformCount": 1,
    "parentStationId": null
  },
  {
    "id": "de:08111:2260_Parent",
    "name": "Bottroper Straße",
    "districtId": "muenster",
    "latitude": 48.820988,
    "longitude": 9.210022,
    "source": "MobiData BW GTFS",
    "locationType": "stop",
    "platformCount": 4,
    "parentStationId": "de:08111:2260_Parent"
  },
  {
    "id": "Brendle (Großmarkt):9.22675:48.78154",
    "name": "Brendle (Großmarkt)",
    "districtId": "ost",
    "latitude": 48.781544,
    "longitude": 9.226748,
    "source": "MobiData BW GTFS",
    "locationType": "station",
    "platformCount": 1,
    "parentStationId": null
  },
  {
    "id": "de:08111:81_Parent",
    "name": "Brendle (Großmarkt)",
    "districtId": "ost",
    "latitude": 48.781563,
    "longitude": 9.226748,
    "source": "MobiData BW GTFS",
    "locationType": "stop",
    "platformCount": 4,
    "parentStationId": "de:08111:81_Parent"
  },
  {
    "id": "Brigachstraße:9.22315:48.82305",
    "name": "Brigachstraße",
    "districtId": "muenster",
    "latitude": 48.82305,
    "longitude": 9.223146,
    "source": "MobiData BW GTFS",
    "locationType": "stop",
    "platformCount": 1,
    "parentStationId": null
  },
  {
    "id": "Bruckner-/Lindpaintnerstr.:9.12877:48.77299",
    "name": "Bruckner-/Lindpaintnerstr.",
    "districtId": "botnang",
    "latitude": 48.77299,
    "longitude": 9.12877,
    "source": "MobiData BW GTFS",
    "locationType": "stop",
    "platformCount": 1,
    "parentStationId": null
  },
  {
    "id": "Bruderhaus:9.08323:48.75599",
    "name": "Bruderhaus",
    "districtId": "west",
    "latitude": 48.75599,
    "longitude": 9.083225,
    "source": "MobiData BW GTFS",
    "locationType": "stop",
    "platformCount": 1,
    "parentStationId": null
  },
  {
    "id": "Bruderhaus:9.08194:48.75623",
    "name": "Bruderhaus",
    "districtId": "west",
    "latitude": 48.756233,
    "longitude": 9.081941,
    "source": "MobiData BW GTFS",
    "locationType": "stop",
    "platformCount": 1,
    "parentStationId": null
  },
  {
    "id": "Bubenbad:9.19475:48.77346",
    "name": "Bubenbad",
    "districtId": "ost",
    "latitude": 48.773464,
    "longitude": 9.194751,
    "source": "MobiData BW GTFS",
    "locationType": "station",
    "platformCount": 1,
    "parentStationId": null
  },
  {
    "id": "de:08111:124_Parent",
    "name": "Bubenbad",
    "districtId": "ost",
    "latitude": 48.77296,
    "longitude": 9.194724,
    "source": "MobiData BW GTFS",
    "locationType": "stop",
    "platformCount": 5,
    "parentStationId": "de:08111:124_Parent"
  },
  {
    "id": "Buchrain Friedhof:9.08137:48.73055",
    "name": "Buchrain Friedhof",
    "districtId": "vaihingen",
    "latitude": 48.730553,
    "longitude": 9.081374,
    "source": "MobiData BW GTFS",
    "locationType": "stop",
    "platformCount": 1,
    "parentStationId": null
  },
  {
    "id": "Buchrain Friedhof:9.08200:48.73071",
    "name": "Buchrain Friedhof",
    "districtId": "vaihingen",
    "latitude": 48.730713,
    "longitude": 9.082004,
    "source": "MobiData BW GTFS",
    "locationType": "stop",
    "platformCount": 1,
    "parentStationId": null
  },
  {
    "id": "Büchsenstraße:9.17458:48.77750",
    "name": "Büchsenstraße",
    "districtId": "mitte",
    "latitude": 48.777496,
    "longitude": 9.174575,
    "source": "MobiData BW GTFS",
    "locationType": "stop",
    "platformCount": 1,
    "parentStationId": null
  },
  {
    "id": "Buchwald:9.21169:48.77140",
    "name": "Buchwald",
    "districtId": "ost",
    "latitude": 48.771397,
    "longitude": 9.211693,
    "source": "MobiData BW GTFS",
    "locationType": "stop",
    "platformCount": 1,
    "parentStationId": null
  },
  {
    "id": "Budapester Platz:9.18566:48.79048",
    "name": "Budapester Platz",
    "districtId": "mitte",
    "latitude": 48.79048,
    "longitude": 9.18566,
    "source": "MobiData BW GTFS",
    "locationType": "stop",
    "platformCount": 1,
    "parentStationId": null
  },
  {
    "id": "Budapester Platz:9.18567:48.79044",
    "name": "Budapester Platz",
    "districtId": "mitte",
    "latitude": 48.790436,
    "longitude": 9.185669,
    "source": "MobiData BW GTFS",
    "locationType": "stop",
    "platformCount": 1,
    "parentStationId": null
  },
  {
    "id": "Burgholzhof:9.19130:48.81749",
    "name": "Burgholzhof",
    "districtId": "bad-cannstatt",
    "latitude": 48.817486,
    "longitude": 9.191301,
    "source": "MobiData BW GTFS",
    "locationType": "stop",
    "platformCount": 1,
    "parentStationId": null
  },
  {
    "id": "Burgholzhof:9.19175:48.81759",
    "name": "Burgholzhof",
    "districtId": "bad-cannstatt",
    "latitude": 48.817593,
    "longitude": 9.191751,
    "source": "MobiData BW GTFS",
    "locationType": "stop",
    "platformCount": 1,
    "parentStationId": null
  },
  {
    "id": "Burgholzstraße:9.20959:48.82216",
    "name": "Burgholzstraße",
    "districtId": "muenster",
    "latitude": 48.82216,
    "longitude": 9.209591,
    "source": "MobiData BW GTFS",
    "locationType": "stop",
    "platformCount": 1,
    "parentStationId": null
  },
  {
    "id": "Büsnauer Platz:9.08031:48.74983",
    "name": "Büsnauer Platz",
    "districtId": "vaihingen",
    "latitude": 48.749832,
    "longitude": 9.080306,
    "source": "MobiData BW GTFS",
    "locationType": "stop",
    "platformCount": 1,
    "parentStationId": null
  },
  {
    "id": "Bußbachstraße:9.22004:48.74789",
    "name": "Bußbachstraße",
    "districtId": "sillenbuch",
    "latitude": 48.747887,
    "longitude": 9.220038,
    "source": "MobiData BW GTFS",
    "locationType": "stop",
    "platformCount": 1,
    "parentStationId": null
  },
  {
    "id": "Cannstatter Wasen:9.22020:48.79652",
    "name": "Cannstatter Wasen",
    "districtId": "bad-cannstatt",
    "latitude": 48.796516,
    "longitude": 9.220201,
    "source": "MobiData BW GTFS",
    "locationType": "stop",
    "platformCount": 1,
    "parentStationId": null
  },
  {
    "id": "Cannstatter Wasen:9.22017:48.79648",
    "name": "Cannstatter Wasen",
    "districtId": "bad-cannstatt",
    "latitude": 48.796482,
    "longitude": 9.220173,
    "source": "MobiData BW GTFS",
    "locationType": "stop",
    "platformCount": 1,
    "parentStationId": null
  },
  {
    "id": "Charlottenplatz:9.18291:48.77628",
    "name": "Charlottenplatz",
    "districtId": "mitte",
    "latitude": 48.776276,
    "longitude": 9.182911,
    "source": "MobiData BW GTFS",
    "locationType": "station",
    "platformCount": 1,
    "parentStationId": null
  },
  {
    "id": "de:08111:6075_Parent",
    "name": "Charlottenplatz",
    "districtId": "mitte",
    "latitude": 48.775887,
    "longitude": 9.182911,
    "source": "MobiData BW GTFS",
    "locationType": "stop",
    "platformCount": 11,
    "parentStationId": "de:08111:6075_Parent"
  },
  {
    "id": "Chopinstr. (Wendeplatte):9.11156:48.77933",
    "name": "Chopinstr. (Wendeplatte)",
    "districtId": "botnang",
    "latitude": 48.77933,
    "longitude": 9.111558,
    "source": "MobiData BW GTFS",
    "locationType": "stop",
    "platformCount": 1,
    "parentStationId": null
  },
  {
    "id": "Dachswald:9.12109:48.74784",
    "name": "Dachswald",
    "districtId": "vaihingen",
    "latitude": 48.747845,
    "longitude": 9.121089,
    "source": "MobiData BW GTFS",
    "locationType": "stop",
    "platformCount": 1,
    "parentStationId": null
  },
  {
    "id": "Dachswald:9.12121:48.74770",
    "name": "Dachswald",
    "districtId": "vaihingen",
    "latitude": 48.7477,
    "longitude": 9.121206,
    "source": "MobiData BW GTFS",
    "locationType": "stop",
    "platformCount": 1,
    "parentStationId": null
  },
  {
    "id": "Dachswaldweg:9.12091:48.74686",
    "name": "Dachswaldweg",
    "districtId": "vaihingen",
    "latitude": 48.746864,
    "longitude": 9.12091,
    "source": "MobiData BW GTFS",
    "locationType": "stop",
    "platformCount": 1,
    "parentStationId": null
  },
  {
    "id": "Dachswaldweg:9.12187:48.74622",
    "name": "Dachswaldweg",
    "districtId": "vaihingen",
    "latitude": 48.746216,
    "longitude": 9.121871,
    "source": "MobiData BW GTFS",
    "locationType": "stop",
    "platformCount": 1,
    "parentStationId": null
  },
  {
    "id": "Daimlerplatz:9.21900:48.80532",
    "name": "Daimlerplatz",
    "districtId": "bad-cannstatt",
    "latitude": 48.805317,
    "longitude": 9.218996,
    "source": "MobiData BW GTFS",
    "locationType": "stop",
    "platformCount": 1,
    "parentStationId": null
  },
  {
    "id": "Daimlerplatz:9.21902:48.80530",
    "name": "Daimlerplatz",
    "districtId": "bad-cannstatt",
    "latitude": 48.805298,
    "longitude": 9.219024,
    "source": "MobiData BW GTFS",
    "locationType": "stop",
    "platformCount": 1,
    "parentStationId": null
  },
  {
    "id": "Degerloch:9.16858:48.74878",
    "name": "Degerloch",
    "districtId": "degerloch",
    "latitude": 48.748775,
    "longitude": 9.168583,
    "source": "MobiData BW GTFS",
    "locationType": "station",
    "platformCount": 1,
    "parentStationId": null
  },
  {
    "id": "de:08111:6165_Parent",
    "name": "Degerloch",
    "districtId": "degerloch",
    "latitude": 48.7488,
    "longitude": 9.168547,
    "source": "MobiData BW GTFS",
    "locationType": "stop",
    "platformCount": 5,
    "parentStationId": "de:08111:6165_Parent"
  },
  {
    "id": "Degerloch Albstraße:9.16335:48.74644",
    "name": "Degerloch Albstraße",
    "districtId": "degerloch",
    "latitude": 48.746437,
    "longitude": 9.163355,
    "source": "MobiData BW GTFS",
    "locationType": "stop",
    "platformCount": 1,
    "parentStationId": null
  },
  {
    "id": "Degerloch Albstraße:9.16338:48.74642",
    "name": "Degerloch Albstraße",
    "districtId": "degerloch",
    "latitude": 48.746418,
    "longitude": 9.163382,
    "source": "MobiData BW GTFS",
    "locationType": "stop",
    "platformCount": 1,
    "parentStationId": null
  },
  {
    "id": "Degerloch Epplestr. Bstg 9:9.16979:48.74875",
    "name": "Degerloch Epplestr. Bstg 9",
    "districtId": "degerloch",
    "latitude": 48.748753,
    "longitude": 9.169786,
    "source": "MobiData BW GTFS",
    "locationType": "stop",
    "platformCount": 1,
    "parentStationId": null
  },
  {
    "id": "Degerloch ZOB:9.16723:48.74822",
    "name": "Degerloch ZOB",
    "districtId": "degerloch",
    "latitude": 48.74822,
    "longitude": 9.167235,
    "source": "MobiData BW GTFS",
    "locationType": "station",
    "platformCount": 1,
    "parentStationId": null
  },
  {
    "id": "de:08111:6163_Parent",
    "name": "Degerloch ZOB Bstg 1",
    "districtId": "degerloch",
    "latitude": 48.748047,
    "longitude": 9.167182,
    "source": "MobiData BW GTFS",
    "locationType": "stop",
    "platformCount": 5,
    "parentStationId": "de:08111:6163_Parent"
  },
  {
    "id": "Dessauer Straße:9.21290:48.81870",
    "name": "Dessauer Straße",
    "districtId": "bad-cannstatt",
    "latitude": 48.818703,
    "longitude": 9.212897,
    "source": "MobiData BW GTFS",
    "locationType": "stop",
    "platformCount": 1,
    "parentStationId": null
  },
  {
    "id": "Dessauer Straße:9.21302:48.81867",
    "name": "Dessauer Straße",
    "districtId": "bad-cannstatt",
    "latitude": 48.81867,
    "longitude": 9.213022,
    "source": "MobiData BW GTFS",
    "locationType": "stop",
    "platformCount": 1,
    "parentStationId": null
  },
  {
    "id": "Dillmannstraße:9.16033:48.78668",
    "name": "Dillmannstraße",
    "districtId": "nord",
    "latitude": 48.786682,
    "longitude": 9.160328,
    "source": "MobiData BW GTFS",
    "locationType": "stop",
    "platformCount": 1,
    "parentStationId": null
  },
  {
    "id": "Dillmannstraße:9.16056:48.78662",
    "name": "Dillmannstraße",
    "districtId": "nord",
    "latitude": 48.786617,
    "longitude": 9.160562,
    "source": "MobiData BW GTFS",
    "locationType": "stop",
    "platformCount": 1,
    "parentStationId": null
  },
  {
    "id": "Dillmannstraße:9.15984:48.78652",
    "name": "Dillmannstraße",
    "districtId": "nord",
    "latitude": 48.78652,
    "longitude": 9.1598425,
    "source": "MobiData BW GTFS",
    "locationType": "stop",
    "platformCount": 1,
    "parentStationId": null
  },
  {
    "id": "Dinkelstraße (Karlshof):9.18583:48.72634",
    "name": "Dinkelstraße (Karlshof)",
    "districtId": "plieningen",
    "latitude": 48.72634,
    "longitude": 9.185831,
    "source": "MobiData BW GTFS",
    "locationType": "stop",
    "platformCount": 2,
    "parentStationId": null
  },
  {
    "id": "Ditzinger Straße:9.09677:48.81788",
    "name": "Ditzinger Straße",
    "districtId": "weilimdorf",
    "latitude": 48.817875,
    "longitude": 9.096771,
    "source": "MobiData BW GTFS",
    "locationType": "stop",
    "platformCount": 1,
    "parentStationId": null
  },
  {
    "id": "Ditzinger Straße:9.09699:48.81795",
    "name": "Ditzinger Straße",
    "districtId": "weilimdorf",
    "latitude": 48.81795,
    "longitude": 9.096988,
    "source": "MobiData BW GTFS",
    "locationType": "stop",
    "platformCount": 1,
    "parentStationId": null
  },
  {
    "id": "Dobelstraße:9.18597:48.76975",
    "name": "Dobelstraße",
    "districtId": "mitte",
    "latitude": 48.769745,
    "longitude": 9.185974,
    "source": "MobiData BW GTFS",
    "locationType": "stop",
    "platformCount": 1,
    "parentStationId": null
  },
  {
    "id": "Dobelstraße:9.18600:48.76973",
    "name": "Dobelstraße",
    "districtId": "mitte",
    "latitude": 48.76973,
    "longitude": 9.186002,
    "source": "MobiData BW GTFS",
    "locationType": "stop",
    "platformCount": 1,
    "parentStationId": null
  },
  {
    "id": "Doggenburg:9.15112:48.78773",
    "name": "Doggenburg",
    "districtId": "nord",
    "latitude": 48.78773,
    "longitude": 9.15112,
    "source": "MobiData BW GTFS",
    "locationType": "stop",
    "platformCount": 1,
    "parentStationId": null
  },
  {
    "id": "Doggenburg:9.15127:48.78775",
    "name": "Doggenburg",
    "districtId": "nord",
    "latitude": 48.787754,
    "longitude": 9.151273,
    "source": "MobiData BW GTFS",
    "locationType": "stop",
    "platformCount": 1,
    "parentStationId": null
  },
  {
    "id": "Doggenburg:9.15157:48.78723",
    "name": "Doggenburg",
    "districtId": "nord",
    "latitude": 48.78723,
    "longitude": 9.151569,
    "source": "MobiData BW GTFS",
    "locationType": "stop",
    "platformCount": 1,
    "parentStationId": null
  },
  {
    "id": "Donizetti-/Elt.st./Chopinstr.:9.11989:48.78036",
    "name": "Donizetti-/Elt.st./Chopinstr.",
    "districtId": "botnang",
    "latitude": 48.78036,
    "longitude": 9.119885,
    "source": "MobiData BW GTFS",
    "locationType": "stop",
    "platformCount": 1,
    "parentStationId": null
  },
  {
    "id": "Dornhaldenstraße:9.15946:48.75918",
    "name": "Dornhaldenstraße",
    "districtId": "sued",
    "latitude": 48.759182,
    "longitude": 9.159456,
    "source": "MobiData BW GTFS",
    "locationType": "stop",
    "platformCount": 1,
    "parentStationId": null
  },
  {
    "id": "Dornhaldenstraße:9.15967:48.75960",
    "name": "Dornhaldenstraße",
    "districtId": "sued",
    "latitude": 48.759598,
    "longitude": 9.159672,
    "source": "MobiData BW GTFS",
    "locationType": "stop",
    "platformCount": 1,
    "parentStationId": null
  },
  {
    "id": "Dornröschenweg:9.14480:48.72103",
    "name": "Dornröschenweg",
    "districtId": "moehringen",
    "latitude": 48.72103,
    "longitude": 9.144795,
    "source": "MobiData BW GTFS",
    "locationType": "stop",
    "platformCount": 1,
    "parentStationId": null
  },
  {
    "id": "Dornröschenweg:9.14410:48.71963",
    "name": "Dornröschenweg",
    "districtId": "moehringen",
    "latitude": 48.719627,
    "longitude": 9.144104,
    "source": "MobiData BW GTFS",
    "locationType": "stop",
    "platformCount": 1,
    "parentStationId": null
  },
  {
    "id": "Dorotheenstraße:9.18138:48.77494",
    "name": "Dorotheenstraße",
    "districtId": "mitte",
    "latitude": 48.774937,
    "longitude": 9.181384,
    "source": "MobiData BW GTFS",
    "locationType": "stop",
    "platformCount": 1,
    "parentStationId": null
  },
  {
    "id": "Dreiecksplatz:9.22169:48.82005",
    "name": "Dreiecksplatz",
    "districtId": "muenster",
    "latitude": 48.820045,
    "longitude": 9.221691,
    "source": "MobiData BW GTFS",
    "locationType": "stop",
    "platformCount": 1,
    "parentStationId": null
  },
  {
    "id": "Dreiecksplatz:9.22262:48.82001",
    "name": "Dreiecksplatz",
    "districtId": "muenster",
    "latitude": 48.82001,
    "longitude": 9.222617,
    "source": "MobiData BW GTFS",
    "locationType": "stop",
    "platformCount": 1,
    "parentStationId": null
  },
  {
    "id": "Dürnauer Weg:9.20406:48.72417",
    "name": "Dürnauer Weg",
    "districtId": "birkach",
    "latitude": 48.724167,
    "longitude": 9.204058,
    "source": "MobiData BW GTFS",
    "locationType": "stop",
    "platformCount": 1,
    "parentStationId": null
  },
  {
    "id": "Dürnauer Weg:9.20311:48.72416",
    "name": "Dürnauer Weg",
    "districtId": "birkach",
    "latitude": 48.72416,
    "longitude": 9.203105,
    "source": "MobiData BW GTFS",
    "locationType": "stop",
    "platformCount": 1,
    "parentStationId": null
  },
  {
    "id": "Dürrbachstraße:9.23664:48.75843",
    "name": "Dürrbachstraße",
    "districtId": "hedelfingen",
    "latitude": 48.758434,
    "longitude": 9.236639,
    "source": "MobiData BW GTFS",
    "locationType": "stop",
    "platformCount": 1,
    "parentStationId": null
  },
  {
    "id": "Dürrbachstraße:9.23766:48.75837",
    "name": "Dürrbachstraße",
    "districtId": "hedelfingen",
    "latitude": 48.758366,
    "longitude": 9.237655,
    "source": "MobiData BW GTFS",
    "locationType": "stop",
    "platformCount": 1,
    "parentStationId": null
  },
  {
    "id": "Dürrlewang:9.11805:48.71902",
    "name": "Dürrlewang",
    "districtId": "vaihingen",
    "latitude": 48.71902,
    "longitude": 9.1180525,
    "source": "MobiData BW GTFS",
    "locationType": "station",
    "platformCount": 1,
    "parentStationId": null
  },
  {
    "id": "de:08111:2613_Parent",
    "name": "Dürrlewang",
    "districtId": "vaihingen",
    "latitude": 48.718697,
    "longitude": 9.117873,
    "source": "MobiData BW GTFS",
    "locationType": "stop",
    "platformCount": 4,
    "parentStationId": "de:08111:2613_Parent"
  },
  {
    "id": "Ebitzweg:9.23208:48.80371",
    "name": "Ebitzweg",
    "districtId": "bad-cannstatt",
    "latitude": 48.803715,
    "longitude": 9.232076,
    "source": "MobiData BW GTFS",
    "locationType": "station",
    "platformCount": 1,
    "parentStationId": null
  },
  {
    "id": "de:08111:1604_Parent",
    "name": "Ebitzweg",
    "districtId": "bad-cannstatt",
    "latitude": 48.80376,
    "longitude": 9.231852,
    "source": "MobiData BW GTFS",
    "locationType": "stop",
    "platformCount": 4,
    "parentStationId": "de:08111:1604_Parent"
  },
  {
    "id": "Ebniseestraße:9.26451:48.76765",
    "name": "Ebniseestraße",
    "districtId": "obertuerkheim",
    "latitude": 48.767654,
    "longitude": 9.264514,
    "source": "MobiData BW GTFS",
    "locationType": "stop",
    "platformCount": 1,
    "parentStationId": null
  },
  {
    "id": "Ebniseestraße:9.26461:48.76788",
    "name": "Ebniseestraße",
    "districtId": "obertuerkheim",
    "latitude": 48.76788,
    "longitude": 9.264613,
    "source": "MobiData BW GTFS",
    "locationType": "stop",
    "platformCount": 1,
    "parentStationId": null
  },
  {
    "id": "Edelweißweg:9.24152:48.81414",
    "name": "Edelweißweg",
    "districtId": "bad-cannstatt",
    "latitude": 48.814144,
    "longitude": 9.241517,
    "source": "MobiData BW GTFS",
    "locationType": "stop",
    "platformCount": 1,
    "parentStationId": null
  },
  {
    "id": "Edelweißweg:9.24146:48.81421",
    "name": "Edelweißweg",
    "districtId": "bad-cannstatt",
    "latitude": 48.814213,
    "longitude": 9.241464,
    "source": "MobiData BW GTFS",
    "locationType": "stop",
    "platformCount": 1,
    "parentStationId": null
  },
  {
    "id": "Ehrenhalde:9.16055:48.78781",
    "name": "Ehrenhalde",
    "districtId": "nord",
    "latitude": 48.787807,
    "longitude": 9.160552,
    "source": "MobiData BW GTFS",
    "locationType": "stop",
    "platformCount": 1,
    "parentStationId": null
  },
  {
    "id": "Ehrenhalde:9.16005:48.78753",
    "name": "Ehrenhalde",
    "districtId": "nord",
    "latitude": 48.78753,
    "longitude": 9.160049,
    "source": "MobiData BW GTFS",
    "locationType": "stop",
    "platformCount": 1,
    "parentStationId": null
  },
  {
    "id": "Ehrenhalde:9.16066:48.78842",
    "name": "Ehrenhalde",
    "districtId": "nord",
    "latitude": 48.788418,
    "longitude": 9.16066,
    "source": "MobiData BW GTFS",
    "locationType": "stop",
    "platformCount": 1,
    "parentStationId": null
  },
  {
    "id": "Eiernest:9.15933:48.75750",
    "name": "Eiernest",
    "districtId": "sued",
    "latitude": 48.7575,
    "longitude": 9.15933,
    "source": "MobiData BW GTFS",
    "locationType": "stop",
    "platformCount": 1,
    "parentStationId": null
  },
  {
    "id": "Elbestraße:9.21285:48.82552",
    "name": "Elbestraße",
    "districtId": "muenster",
    "latitude": 48.825523,
    "longitude": 9.212852,
    "source": "MobiData BW GTFS",
    "locationType": "stop",
    "platformCount": 1,
    "parentStationId": null
  },
  {
    "id": "Elbestraße:9.21283:48.82556",
    "name": "Elbestraße",
    "districtId": "muenster",
    "latitude": 48.825558,
    "longitude": 9.212825,
    "source": "MobiData BW GTFS",
    "locationType": "stop",
    "platformCount": 1,
    "parentStationId": null
  },
  {
    "id": "Elbestraße:9.21231:48.82516",
    "name": "Elbestraße",
    "districtId": "muenster",
    "latitude": 48.82516,
    "longitude": 9.212313,
    "source": "MobiData BW GTFS",
    "locationType": "stop",
    "platformCount": 1,
    "parentStationId": null
  },
  {
    "id": "Elsterstaffel:9.14949:48.75817",
    "name": "Elsterstaffel",
    "districtId": "sued",
    "latitude": 48.75817,
    "longitude": 9.149494,
    "source": "MobiData BW GTFS",
    "locationType": "stop",
    "platformCount": 1,
    "parentStationId": null
  },
  {
    "id": "Elsterstaffel:9.14952:48.75808",
    "name": "Elsterstaffel",
    "districtId": "sued",
    "latitude": 48.75808,
    "longitude": 9.149521,
    "source": "MobiData BW GTFS",
    "locationType": "stop",
    "platformCount": 1,
    "parentStationId": null
  },
  {
    "id": "Eltinger Straße:9.12682:48.77924",
    "name": "Eltinger Straße",
    "districtId": "botnang",
    "latitude": 48.779243,
    "longitude": 9.126821,
    "source": "MobiData BW GTFS",
    "locationType": "station",
    "platformCount": 1,
    "parentStationId": null
  },
  {
    "id": "de:08111:6210_Parent",
    "name": "Eltinger Straße",
    "districtId": "botnang",
    "latitude": 48.77926,
    "longitude": 9.126839,
    "source": "MobiData BW GTFS",
    "locationType": "stop",
    "platformCount": 5,
    "parentStationId": "de:08111:6210_Parent"
  },
  {
    "id": "Eltinger-/Kauffmannstr.:9.12476:48.77916",
    "name": "Eltinger-/Kauffmannstr.",
    "districtId": "botnang",
    "latitude": 48.779163,
    "longitude": 9.1247635,
    "source": "MobiData BW GTFS",
    "locationType": "stop",
    "platformCount": 1,
    "parentStationId": null
  },
  {
    "id": "Eltinger-/Sommerhaldenstr.:9.12074:48.77927",
    "name": "Eltinger-/Sommerhaldenstr.",
    "districtId": "botnang",
    "latitude": 48.779266,
    "longitude": 9.120739,
    "source": "MobiData BW GTFS",
    "locationType": "stop",
    "platformCount": 1,
    "parentStationId": null
  },
  {
    "id": "Elwertstraße:9.21755:48.79833",
    "name": "Elwertstraße",
    "districtId": "bad-cannstatt",
    "latitude": 48.79833,
    "longitude": 9.21755,
    "source": "MobiData BW GTFS",
    "locationType": "stop",
    "platformCount": 1,
    "parentStationId": null
  },
  {
    "id": "Emerholz:9.14171:48.85350",
    "name": "Emerholz",
    "districtId": "stammheim",
    "latitude": 48.8535,
    "longitude": 9.141714,
    "source": "MobiData BW GTFS",
    "locationType": "stop",
    "platformCount": 1,
    "parentStationId": null
  },
  {
    "id": "Emerholz:9.14161:48.85332",
    "name": "Emerholz",
    "districtId": "stammheim",
    "latitude": 48.853317,
    "longitude": 9.141606,
    "source": "MobiData BW GTFS",
    "locationType": "stop",
    "platformCount": 1,
    "parentStationId": null
  },
  {
    "id": "EnBW City:9.16742:48.71172",
    "name": "EnBW City",
    "districtId": "moehringen",
    "latitude": 48.711723,
    "longitude": 9.167416,
    "source": "MobiData BW GTFS",
    "locationType": "stop",
    "platformCount": 1,
    "parentStationId": null
  },
  {
    "id": "EnBW City:9.16752:48.71174",
    "name": "EnBW City",
    "districtId": "moehringen",
    "latitude": 48.711742,
    "longitude": 9.167523,
    "source": "MobiData BW GTFS",
    "locationType": "stop",
    "platformCount": 1,
    "parentStationId": null
  },
  {
    "id": "EnBW City:9.16694:48.71228",
    "name": "EnBW City",
    "districtId": "moehringen",
    "latitude": 48.712276,
    "longitude": 9.166939,
    "source": "MobiData BW GTFS",
    "locationType": "stop",
    "platformCount": 1,
    "parentStationId": null
  },
  {
    "id": "Engelboldstraße:9.12780:48.73692",
    "name": "Engelboldstraße",
    "districtId": "sued",
    "latitude": 48.736923,
    "longitude": 9.127799,
    "source": "MobiData BW GTFS",
    "locationType": "stop",
    "platformCount": 1,
    "parentStationId": null
  },
  {
    "id": "Engelboldstraße:9.12824:48.73776",
    "name": "Engelboldstraße",
    "districtId": "sued",
    "latitude": 48.73776,
    "longitude": 9.12824,
    "source": "MobiData BW GTFS",
    "locationType": "stop",
    "platformCount": 1,
    "parentStationId": null
  },
  {
    "id": "Engelboldstraße:9.12790:48.73737",
    "name": "Engelboldstraße",
    "districtId": "sued",
    "latitude": 48.737373,
    "longitude": 9.127898,
    "source": "MobiData BW GTFS",
    "locationType": "stop",
    "platformCount": 1,
    "parentStationId": null
  },
  {
    "id": "Erdbeerweg:9.21743:48.75276",
    "name": "Erdbeerweg",
    "districtId": "sillenbuch",
    "latitude": 48.752758,
    "longitude": 9.217433,
    "source": "MobiData BW GTFS",
    "locationType": "stop",
    "platformCount": 1,
    "parentStationId": null
  },
  {
    "id": "Ernst-Reuter-Platz:9.09223:48.80332",
    "name": "Ernst-Reuter-Platz",
    "districtId": "weilimdorf",
    "latitude": 48.803318,
    "longitude": 9.092226,
    "source": "MobiData BW GTFS",
    "locationType": "stop",
    "platformCount": 1,
    "parentStationId": null
  },
  {
    "id": "Erwin-Schoettle-Platz:9.16008:48.76288",
    "name": "Erwin-Schoettle-Platz",
    "districtId": "sued",
    "latitude": 48.76288,
    "longitude": 9.160076,
    "source": "MobiData BW GTFS",
    "locationType": "station",
    "platformCount": 1,
    "parentStationId": null
  },
  {
    "id": "de:08111:6017_Parent",
    "name": "Erwin-Schoettle-Platz",
    "districtId": "sued",
    "latitude": 48.762894,
    "longitude": 9.160076,
    "source": "MobiData BW GTFS",
    "locationType": "stop",
    "platformCount": 5,
    "parentStationId": "de:08111:6017_Parent"
  },
  {
    "id": "Eselweg:9.21965:48.76133",
    "name": "Eselweg",
    "districtId": "ost",
    "latitude": 48.761333,
    "longitude": 9.219652,
    "source": "MobiData BW GTFS",
    "locationType": "stop",
    "platformCount": 1,
    "parentStationId": null
  },
  {
    "id": "Eselweg:9.21939:48.76140",
    "name": "Eselweg",
    "districtId": "ost",
    "latitude": 48.761402,
    "longitude": 9.219392,
    "source": "MobiData BW GTFS",
    "locationType": "stop",
    "platformCount": 1,
    "parentStationId": null
  },
  {
    "id": "Eszet:9.24661:48.78762",
    "name": "Eszet",
    "districtId": "untertuerkheim",
    "latitude": 48.787624,
    "longitude": 9.246611,
    "source": "MobiData BW GTFS",
    "locationType": "station",
    "platformCount": 1,
    "parentStationId": null
  },
  {
    "id": "de:08111:267_Parent",
    "name": "Eszet",
    "districtId": "untertuerkheim",
    "latitude": 48.787605,
    "longitude": 9.246602,
    "source": "MobiData BW GTFS",
    "locationType": "stop",
    "platformCount": 4,
    "parentStationId": "de:08111:267_Parent"
  },
  {
    "id": "Eugensplatz:9.19047:48.77800",
    "name": "Eugensplatz",
    "districtId": "mitte",
    "latitude": 48.778004,
    "longitude": 9.190466,
    "source": "MobiData BW GTFS",
    "locationType": "station",
    "platformCount": 1,
    "parentStationId": null
  },
  {
    "id": "de:08111:6121_Parent",
    "name": "Eugensplatz",
    "districtId": "mitte",
    "latitude": 48.778,
    "longitude": 9.190493,
    "source": "MobiData BW GTFS",
    "locationType": "stop",
    "platformCount": 6,
    "parentStationId": "de:08111:6121_Parent"
  },
  {
    "id": "Europaplatz:9.16030:48.71218",
    "name": "Europaplatz",
    "districtId": "moehringen",
    "latitude": 48.712177,
    "longitude": 9.1603,
    "source": "MobiData BW GTFS",
    "locationType": "station",
    "platformCount": 1,
    "parentStationId": null
  },
  {
    "id": "de:08111:2584_Parent",
    "name": "Europaplatz",
    "districtId": "moehringen",
    "latitude": 48.71214,
    "longitude": 9.16031,
    "source": "MobiData BW GTFS",
    "locationType": "stop",
    "platformCount": 4,
    "parentStationId": "de:08111:2584_Parent"
  },
  {
    "id": "F.-Schubert-/A. Stuttg. Str.:9.12624:48.77777",
    "name": "F.-Schubert-/A. Stuttg. Str.",
    "districtId": "botnang",
    "latitude": 48.777767,
    "longitude": 9.126236,
    "source": "MobiData BW GTFS",
    "locationType": "stop",
    "platformCount": 1,
    "parentStationId": null
  },
  {
    "id": "Falbenhennenstraße:9.17867:48.76621",
    "name": "Falbenhennenstraße",
    "districtId": "sued",
    "latitude": 48.766212,
    "longitude": 9.178671,
    "source": "MobiData BW GTFS",
    "locationType": "stop",
    "platformCount": 1,
    "parentStationId": null
  },
  {
    "id": "Falbenhennenstraße:9.17841:48.76698",
    "name": "Falbenhennenstraße",
    "districtId": "sued",
    "latitude": 48.76698,
    "longitude": 9.178411,
    "source": "MobiData BW GTFS",
    "locationType": "stop",
    "platformCount": 1,
    "parentStationId": null
  },
  {
    "id": "Falbenhennenstraße:9.17802:48.76679",
    "name": "Falbenhennenstraße",
    "districtId": "sued",
    "latitude": 48.766792,
    "longitude": 9.178024,
    "source": "MobiData BW GTFS",
    "locationType": "stop",
    "platformCount": 1,
    "parentStationId": null
  },
  {
    "id": "Fanny-Leicht-Straße:9.11668:48.72974",
    "name": "Fanny-Leicht-Straße",
    "districtId": "vaihingen",
    "latitude": 48.72974,
    "longitude": 9.116678,
    "source": "MobiData BW GTFS",
    "locationType": "stop",
    "platformCount": 1,
    "parentStationId": null
  },
  {
    "id": "Fanny-Leicht-Straße:9.11705:48.72986",
    "name": "Fanny-Leicht-Straße",
    "districtId": "vaihingen",
    "latitude": 48.729855,
    "longitude": 9.117046,
    "source": "MobiData BW GTFS",
    "locationType": "stop",
    "platformCount": 1,
    "parentStationId": null
  },
  {
    "id": "Fasanenhof:9.15301:48.71037",
    "name": "Fasanenhof",
    "districtId": "moehringen",
    "latitude": 48.710373,
    "longitude": 9.153007,
    "source": "MobiData BW GTFS",
    "locationType": "station",
    "platformCount": 1,
    "parentStationId": null
  },
  {
    "id": "de:08111:364_Parent",
    "name": "Fasanenhof",
    "districtId": "moehringen",
    "latitude": 48.710358,
    "longitude": 9.152979,
    "source": "MobiData BW GTFS",
    "locationType": "stop",
    "platformCount": 4,
    "parentStationId": "de:08111:364_Parent"
  },
  {
    "id": "Fasanenhof Abzw.:9.16335:48.71331",
    "name": "Fasanenhof Abzw.",
    "districtId": "moehringen",
    "latitude": 48.713314,
    "longitude": 9.163355,
    "source": "MobiData BW GTFS",
    "locationType": "stop",
    "platformCount": 1,
    "parentStationId": null
  },
  {
    "id": "Fasanenhof Abzw.:9.16400:48.71342",
    "name": "Fasanenhof Abzw.",
    "districtId": "moehringen",
    "latitude": 48.71342,
    "longitude": 9.164001,
    "source": "MobiData BW GTFS",
    "locationType": "stop",
    "platformCount": 1,
    "parentStationId": null
  },
  {
    "id": "Fauststraße:9.11513:48.73193",
    "name": "Fauststraße",
    "districtId": "vaihingen",
    "latitude": 48.73193,
    "longitude": 9.115125,
    "source": "MobiData BW GTFS",
    "locationType": "stop",
    "platformCount": 1,
    "parentStationId": null
  },
  {
    "id": "Fauststraße:9.11515:48.73189",
    "name": "Fauststraße",
    "districtId": "vaihingen",
    "latitude": 48.73189,
    "longitude": 9.115151,
    "source": "MobiData BW GTFS",
    "locationType": "stop",
    "platformCount": 1,
    "parentStationId": null
  },
  {
    "id": "Fauststraße:9.11466:48.73196",
    "name": "Fauststraße",
    "districtId": "vaihingen",
    "latitude": 48.731964,
    "longitude": 9.114657,
    "source": "MobiData BW GTFS",
    "locationType": "stop",
    "platformCount": 1,
    "parentStationId": null
  },
  {
    "id": "Fehrbelliner Str.:9.11698:48.81892",
    "name": "Fehrbelliner Str.",
    "districtId": "weilimdorf",
    "latitude": 48.818924,
    "longitude": 9.116983,
    "source": "MobiData BW GTFS",
    "locationType": "stop",
    "platformCount": 1,
    "parentStationId": null
  },
  {
    "id": "Fehrbelliner Str.:9.11652:48.81859",
    "name": "Fehrbelliner Str.",
    "districtId": "weilimdorf",
    "latitude": 48.818592,
    "longitude": 9.116517,
    "source": "MobiData BW GTFS",
    "locationType": "stop",
    "platformCount": 1,
    "parentStationId": null
  },
  {
    "id": "Fernsehturm:9.18833:48.75614",
    "name": "Fernsehturm",
    "districtId": "degerloch",
    "latitude": 48.756138,
    "longitude": 9.188328,
    "source": "MobiData BW GTFS",
    "locationType": "stop",
    "platformCount": 1,
    "parentStationId": null
  },
  {
    "id": "Feuerbach:9.16919:48.81363",
    "name": "Feuerbach",
    "districtId": "feuerbach",
    "latitude": 48.813633,
    "longitude": 9.169185,
    "source": "MobiData BW GTFS",
    "locationType": "station",
    "platformCount": 1,
    "parentStationId": null
  },
  {
    "id": "de:08111:6157_Parent",
    "name": "Feuerbach Bf",
    "districtId": "feuerbach",
    "latitude": 48.81361,
    "longitude": 9.168251,
    "source": "MobiData BW GTFS",
    "locationType": "stop",
    "platformCount": 10,
    "parentStationId": "de:08111:6157_Parent"
  },
  {
    "id": "Feuerbach Bosch:9.16683:48.81807",
    "name": "Feuerbach Bosch",
    "districtId": "feuerbach",
    "latitude": 48.81807,
    "longitude": 9.166831,
    "source": "MobiData BW GTFS",
    "locationType": "stop",
    "platformCount": 1,
    "parentStationId": null
  },
  {
    "id": "Feuerbach Bosch:9.16666:48.81707",
    "name": "Feuerbach Bosch",
    "districtId": "feuerbach",
    "latitude": 48.817066,
    "longitude": 9.16666,
    "source": "MobiData BW GTFS",
    "locationType": "stop",
    "platformCount": 1,
    "parentStationId": null
  },
  {
    "id": "Feuerbach Friedhof:9.15365:48.80148",
    "name": "Feuerbach Friedhof",
    "districtId": "feuerbach",
    "latitude": 48.801483,
    "longitude": 9.153653,
    "source": "MobiData BW GTFS",
    "locationType": "stop",
    "platformCount": 1,
    "parentStationId": null
  },
  {
    "id": "Feuerbach Friedhof:9.15370:48.80132",
    "name": "Feuerbach Friedhof",
    "districtId": "feuerbach",
    "latitude": 48.801323,
    "longitude": 9.153698,
    "source": "MobiData BW GTFS",
    "locationType": "stop",
    "platformCount": 1,
    "parentStationId": null
  },
  {
    "id": "Feuerbach Pfostenwäldle:9.13552:48.81217",
    "name": "Feuerbach Pfostenwäldle",
    "districtId": "feuerbach",
    "latitude": 48.81217,
    "longitude": 9.135525,
    "source": "MobiData BW GTFS",
    "locationType": "station",
    "platformCount": 1,
    "parentStationId": null
  },
  {
    "id": "de:08111:152_Parent",
    "name": "Feuerbach Pfostenwäldle",
    "districtId": "feuerbach",
    "latitude": 48.81232,
    "longitude": 9.134681,
    "source": "MobiData BW GTFS",
    "locationType": "stop",
    "platformCount": 4,
    "parentStationId": "de:08111:152_Parent"
  },
  {
    "id": "Feuerbacher Weg:9.16366:48.79680",
    "name": "Feuerbacher Weg",
    "districtId": "nord",
    "latitude": 48.796803,
    "longitude": 9.16366,
    "source": "MobiData BW GTFS",
    "locationType": "stop",
    "platformCount": 1,
    "parentStationId": null
  },
  {
    "id": "Feuerbacher Weg:9.16490:48.79717",
    "name": "Feuerbacher Weg",
    "districtId": "nord",
    "latitude": 48.79717,
    "longitude": 9.1649,
    "source": "MobiData BW GTFS",
    "locationType": "stop",
    "platformCount": 1,
    "parentStationId": null
  },
  {
    "id": "Feuersee:9.16585:48.77262",
    "name": "Feuersee",
    "districtId": "west",
    "latitude": 48.772617,
    "longitude": 9.165853,
    "source": "MobiData BW GTFS",
    "locationType": "station",
    "platformCount": 1,
    "parentStationId": null
  },
  {
    "id": "de:08111:6221_Parent",
    "name": "Feuersee",
    "districtId": "west",
    "latitude": 48.772648,
    "longitude": 9.165834,
    "source": "MobiData BW GTFS",
    "locationType": "stop",
    "platformCount": 6,
    "parentStationId": "de:08111:6221_Parent"
  },
  {
    "id": "Fichtestraße:9.15100:48.77940",
    "name": "Fichtestraße",
    "districtId": "west",
    "latitude": 48.7794,
    "longitude": 9.151003,
    "source": "MobiData BW GTFS",
    "locationType": "stop",
    "platformCount": 1,
    "parentStationId": null
  },
  {
    "id": "Fichtestraße:9.15117:48.77934",
    "name": "Fichtestraße",
    "districtId": "west",
    "latitude": 48.779335,
    "longitude": 9.151165,
    "source": "MobiData BW GTFS",
    "locationType": "stop",
    "platformCount": 1,
    "parentStationId": null
  },
  {
    "id": "Filderbahnstraße:9.14699:48.72816",
    "name": "Filderbahnstraße",
    "districtId": "moehringen",
    "latitude": 48.72816,
    "longitude": 9.146988,
    "source": "MobiData BW GTFS",
    "locationType": "stop",
    "platformCount": 1,
    "parentStationId": null
  },
  {
    "id": "Filderblickweg:9.21477:48.76124",
    "name": "Filderblickweg",
    "districtId": "ost",
    "latitude": 48.761242,
    "longitude": 9.214766,
    "source": "MobiData BW GTFS",
    "locationType": "stop",
    "platformCount": 1,
    "parentStationId": null
  },
  {
    "id": "Filderblickweg:9.21468:48.76132",
    "name": "Filderblickweg",
    "districtId": "ost",
    "latitude": 48.76132,
    "longitude": 9.2146845,
    "source": "MobiData BW GTFS",
    "locationType": "stop",
    "platformCount": 1,
    "parentStationId": null
  },
  {
    "id": "Flachter Straße:9.10658:48.81961",
    "name": "Flachter Straße",
    "districtId": "weilimdorf",
    "latitude": 48.819607,
    "longitude": 9.106582,
    "source": "MobiData BW GTFS",
    "locationType": "stop",
    "platformCount": 1,
    "parentStationId": null
  },
  {
    "id": "Flachter Straße:9.10640:48.81961",
    "name": "Flachter Straße",
    "districtId": "weilimdorf",
    "latitude": 48.819607,
    "longitude": 9.106401,
    "source": "MobiData BW GTFS",
    "locationType": "stop",
    "platformCount": 1,
    "parentStationId": null
  },
  {
    "id": "Fleckenweinberg:9.16486:48.80397",
    "name": "Fleckenweinberg",
    "districtId": "feuerbach",
    "latitude": 48.803974,
    "longitude": 9.164864,
    "source": "MobiData BW GTFS",
    "locationType": "stop",
    "platformCount": 1,
    "parentStationId": null
  },
  {
    "id": "Föhrich:9.14988:48.81011",
    "name": "Föhrich",
    "districtId": "feuerbach",
    "latitude": 48.81011,
    "longitude": 9.14988,
    "source": "MobiData BW GTFS",
    "locationType": "station",
    "platformCount": 1,
    "parentStationId": null
  },
  {
    "id": "de:08111:154_Parent",
    "name": "Föhrich",
    "districtId": "feuerbach",
    "latitude": 48.810104,
    "longitude": 9.149853,
    "source": "MobiData BW GTFS",
    "locationType": "stop",
    "platformCount": 6,
    "parentStationId": "de:08111:154_Parent"
  },
  {
    "id": "Forellenweg:9.21513:48.84334",
    "name": "Forellenweg",
    "districtId": "muehlhausen",
    "latitude": 48.843338,
    "longitude": 9.215134,
    "source": "MobiData BW GTFS",
    "locationType": "stop",
    "platformCount": 2,
    "parentStationId": null
  },
  {
    "id": "Forsthaus I:9.11088:48.76599",
    "name": "Forsthaus I",
    "districtId": "west",
    "latitude": 48.765987,
    "longitude": 9.110885,
    "source": "MobiData BW GTFS",
    "locationType": "stop",
    "platformCount": 1,
    "parentStationId": null
  },
  {
    "id": "Forsthaus II:9.09056:48.77982",
    "name": "Forsthaus II",
    "districtId": "west",
    "latitude": 48.779816,
    "longitude": 9.090565,
    "source": "MobiData BW GTFS",
    "locationType": "stop",
    "platformCount": 1,
    "parentStationId": null
  },
  {
    "id": "Forsthaus II:9.09041:48.77776",
    "name": "Forsthaus II",
    "districtId": "west",
    "latitude": 48.777756,
    "longitude": 9.090411,
    "source": "MobiData BW GTFS",
    "locationType": "stop",
    "platformCount": 1,
    "parentStationId": null
  },
  {
    "id": "Forsthaus Parkplatz:9.11563:48.76778",
    "name": "Forsthaus Parkplatz",
    "districtId": "west",
    "latitude": 48.767784,
    "longitude": 9.115627,
    "source": "MobiData BW GTFS",
    "locationType": "stop",
    "platformCount": 1,
    "parentStationId": null
  },
  {
    "id": "Frankenstraße:9.17255:48.82572",
    "name": "Frankenstraße",
    "districtId": "zuffenhausen",
    "latitude": 48.825718,
    "longitude": 9.172554,
    "source": "MobiData BW GTFS",
    "locationType": "stop",
    "platformCount": 1,
    "parentStationId": null
  },
  {
    "id": "Frankenstraße:9.17274:48.82581",
    "name": "Frankenstraße",
    "districtId": "zuffenhausen",
    "latitude": 48.825813,
    "longitude": 9.172742,
    "source": "MobiData BW GTFS",
    "locationType": "stop",
    "platformCount": 1,
    "parentStationId": null
  },
  {
    "id": "Fraubronnstraße:9.20570:48.70319",
    "name": "Fraubronnstraße",
    "districtId": "plieningen",
    "latitude": 48.703194,
    "longitude": 9.205702,
    "source": "MobiData BW GTFS",
    "locationType": "stop",
    "platformCount": 1,
    "parentStationId": null
  },
  {
    "id": "Fraubronnstraße:9.20560:48.70339",
    "name": "Fraubronnstraße",
    "districtId": "plieningen",
    "latitude": 48.703392,
    "longitude": 9.205603,
    "source": "MobiData BW GTFS",
    "locationType": "stop",
    "platformCount": 1,
    "parentStationId": null
  },
  {
    "id": "Frauenkopf:9.22578:48.76118",
    "name": "Frauenkopf",
    "districtId": "ost",
    "latitude": 48.761177,
    "longitude": 9.225779,
    "source": "MobiData BW GTFS",
    "locationType": "stop",
    "platformCount": 1,
    "parentStationId": null
  },
  {
    "id": "Freiberg:9.21062:48.84411",
    "name": "Freiberg",
    "districtId": "muehlhausen",
    "latitude": 48.844112,
    "longitude": 9.210615,
    "source": "MobiData BW GTFS",
    "locationType": "station",
    "platformCount": 1,
    "parentStationId": null
  },
  {
    "id": "de:08111:6287_Parent",
    "name": "Freiberg",
    "districtId": "muehlhausen",
    "latitude": 48.844162,
    "longitude": 9.210588,
    "source": "MobiData BW GTFS",
    "locationType": "stop",
    "platformCount": 4,
    "parentStationId": "de:08111:6287_Parent"
  },
  {
    "id": "Freiberg Schulzentrum:9.21220:48.83878",
    "name": "Freiberg Schulzentrum",
    "districtId": "muehlhausen",
    "latitude": 48.83878,
    "longitude": 9.212196,
    "source": "MobiData BW GTFS",
    "locationType": "stop",
    "platformCount": 1,
    "parentStationId": null
  },
  {
    "id": "Freibergstraße:9.22194:48.82428",
    "name": "Freibergstraße",
    "districtId": "muenster",
    "latitude": 48.824276,
    "longitude": 9.221943,
    "source": "MobiData BW GTFS",
    "locationType": "stop",
    "platformCount": 1,
    "parentStationId": null
  },
  {
    "id": "Freibergstraße:9.22198:48.82430",
    "name": "Freibergstraße",
    "districtId": "muenster",
    "latitude": 48.8243,
    "longitude": 9.221979,
    "source": "MobiData BW GTFS",
    "locationType": "stop",
    "platformCount": 1,
    "parentStationId": null
  },
  {
    "id": "Freibergstraße:9.22195:48.82387",
    "name": "Freibergstraße",
    "districtId": "muenster",
    "latitude": 48.823868,
    "longitude": 9.2219515,
    "source": "MobiData BW GTFS",
    "locationType": "stop",
    "platformCount": 1,
    "parentStationId": null
  },
  {
    "id": "Freihofplatz:9.15690:48.84910",
    "name": "Freihofplatz",
    "districtId": "stammheim",
    "latitude": 48.849102,
    "longitude": 9.156896,
    "source": "MobiData BW GTFS",
    "locationType": "stop",
    "platformCount": 1,
    "parentStationId": null
  },
  {
    "id": "Freihofplatz:9.15558:48.84929",
    "name": "Freihofplatz",
    "districtId": "stammheim",
    "latitude": 48.849293,
    "longitude": 9.155576,
    "source": "MobiData BW GTFS",
    "locationType": "stop",
    "platformCount": 1,
    "parentStationId": null
  },
  {
    "id": "Freytagweg:9.15691:48.70953",
    "name": "Freytagweg",
    "districtId": "moehringen",
    "latitude": 48.709534,
    "longitude": 9.156905,
    "source": "MobiData BW GTFS",
    "locationType": "stop",
    "platformCount": 1,
    "parentStationId": null
  },
  {
    "id": "Freytagweg:9.15688:48.70964",
    "name": "Freytagweg",
    "districtId": "moehringen",
    "latitude": 48.70964,
    "longitude": 9.156878,
    "source": "MobiData BW GTFS",
    "locationType": "stop",
    "platformCount": 1,
    "parentStationId": null
  },
  {
    "id": "Fridinger Straße:9.21826:48.75088",
    "name": "Fridinger Straße",
    "districtId": "sillenbuch",
    "latitude": 48.750885,
    "longitude": 9.21826,
    "source": "MobiData BW GTFS",
    "locationType": "stop",
    "platformCount": 1,
    "parentStationId": null
  },
  {
    "id": "Friedenstraße:9.19316:48.78520",
    "name": "Friedenstraße",
    "districtId": "mitte",
    "latitude": 48.785202,
    "longitude": 9.193161,
    "source": "MobiData BW GTFS",
    "locationType": "stop",
    "platformCount": 1,
    "parentStationId": null
  },
  {
    "id": "Friedenstraße:9.19282:48.78494",
    "name": "Friedenstraße",
    "districtId": "mitte",
    "latitude": 48.784943,
    "longitude": 9.19282,
    "source": "MobiData BW GTFS",
    "locationType": "stop",
    "platformCount": 1,
    "parentStationId": null
  },
  {
    "id": "Friedhofstraße:9.18212:48.79400",
    "name": "Friedhofstraße",
    "districtId": "nord",
    "latitude": 48.794,
    "longitude": 9.18212,
    "source": "MobiData BW GTFS",
    "locationType": "stop",
    "platformCount": 1,
    "parentStationId": null
  },
  {
    "id": "Friedhofstraße:9.18190:48.79401",
    "name": "Friedhofstraße",
    "districtId": "nord",
    "latitude": 48.794014,
    "longitude": 9.181896,
    "source": "MobiData BW GTFS",
    "locationType": "stop",
    "platformCount": 1,
    "parentStationId": null
  },
  {
    "id": "Friedrichswahl:9.17281:48.82290",
    "name": "Friedrichswahl",
    "districtId": "zuffenhausen",
    "latitude": 48.822903,
    "longitude": 9.172814,
    "source": "MobiData BW GTFS",
    "locationType": "stop",
    "platformCount": 1,
    "parentStationId": null
  },
  {
    "id": "Friedrichswahl:9.17285:48.82290",
    "name": "Friedrichswahl",
    "districtId": "zuffenhausen",
    "latitude": 48.822903,
    "longitude": 9.17285,
    "source": "MobiData BW GTFS",
    "locationType": "stop",
    "platformCount": 1,
    "parentStationId": null
  },
  {
    "id": "Friedrichswahl:9.17253:48.82354",
    "name": "Friedrichswahl",
    "districtId": "zuffenhausen",
    "latitude": 48.823544,
    "longitude": 9.172526,
    "source": "MobiData BW GTFS",
    "locationType": "stop",
    "platformCount": 1,
    "parentStationId": null
  },
  {
    "id": "Fritz-Walter-Weg:9.23088:48.79095",
    "name": "Fritz-Walter-Weg",
    "districtId": "bad-cannstatt",
    "latitude": 48.79095,
    "longitude": 9.230881,
    "source": "MobiData BW GTFS",
    "locationType": "stop",
    "platformCount": 1,
    "parentStationId": null
  },
  {
    "id": "Fritz-Walter-Weg:9.23104:48.79095",
    "name": "Fritz-Walter-Weg",
    "districtId": "bad-cannstatt",
    "latitude": 48.790955,
    "longitude": 9.231043,
    "source": "MobiData BW GTFS",
    "locationType": "stop",
    "platformCount": 1,
    "parentStationId": null
  },
  {
    "id": "Fruwirthstraße:9.20604:48.71437",
    "name": "Fruwirthstraße",
    "districtId": "birkach",
    "latitude": 48.714367,
    "longitude": 9.206043,
    "source": "MobiData BW GTFS",
    "locationType": "stop",
    "platformCount": 1,
    "parentStationId": null
  },
  {
    "id": "Fruwirthstraße:9.20620:48.71449",
    "name": "Fruwirthstraße",
    "districtId": "birkach",
    "latitude": 48.71449,
    "longitude": 9.206196,
    "source": "MobiData BW GTFS",
    "locationType": "stop",
    "platformCount": 1,
    "parentStationId": null
  },
  {
    "id": "Fuchsrain:9.20788:48.77103",
    "name": "Fuchsrain",
    "districtId": "ost",
    "latitude": 48.77103,
    "longitude": 9.207884,
    "source": "MobiData BW GTFS",
    "locationType": "stop",
    "platformCount": 1,
    "parentStationId": null
  },
  {
    "id": "Fuchsrain:9.20805:48.77082",
    "name": "Fuchsrain",
    "districtId": "ost",
    "latitude": 48.770824,
    "longitude": 9.208055,
    "source": "MobiData BW GTFS",
    "locationType": "stop",
    "platformCount": 1,
    "parentStationId": null
  },
  {
    "id": "Fürfelder Straße:9.19206:48.83225",
    "name": "Fürfelder Straße",
    "districtId": "zuffenhausen",
    "latitude": 48.83225,
    "longitude": 9.192065,
    "source": "MobiData BW GTFS",
    "locationType": "station",
    "platformCount": 1,
    "parentStationId": null
  },
  {
    "id": "de:08111:6292_Parent",
    "name": "Fürfelder Straße",
    "districtId": "zuffenhausen",
    "latitude": 48.832264,
    "longitude": 9.192047,
    "source": "MobiData BW GTFS",
    "locationType": "stop",
    "platformCount": 4,
    "parentStationId": "de:08111:6292_Parent"
  },
  {
    "id": "Furtw.-/Verdi-/Offenbachstr.:9.12935:48.78103",
    "name": "Furtw.-/Verdi-/Offenbachstr.",
    "districtId": "botnang",
    "latitude": 48.78103,
    "longitude": 9.129354,
    "source": "MobiData BW GTFS",
    "locationType": "stop",
    "platformCount": 1,
    "parentStationId": null
  },
  {
    "id": "G.-Mahler-Str. (Wendeplatte):9.11941:48.77560",
    "name": "G.-Mahler-Str. (Wendeplatte)",
    "districtId": "botnang",
    "latitude": 48.775597,
    "longitude": 9.11941,
    "source": "MobiData BW GTFS",
    "locationType": "stop",
    "platformCount": 1,
    "parentStationId": null
  },
  {
    "id": "Gablenberg:9.20364:48.77499",
    "name": "Gablenberg",
    "districtId": "ost",
    "latitude": 48.774986,
    "longitude": 9.203645,
    "source": "MobiData BW GTFS",
    "locationType": "stop",
    "platformCount": 1,
    "parentStationId": null
  },
  {
    "id": "Gablenberg:9.20352:48.77496",
    "name": "Gablenberg",
    "districtId": "ost",
    "latitude": 48.774956,
    "longitude": 9.203519,
    "source": "MobiData BW GTFS",
    "locationType": "stop",
    "platformCount": 1,
    "parentStationId": null
  },
  {
    "id": "Gaisburg:9.21576:48.78388",
    "name": "Gaisburg",
    "districtId": "ost",
    "latitude": 48.783875,
    "longitude": 9.215762,
    "source": "MobiData BW GTFS",
    "locationType": "stop",
    "platformCount": 1,
    "parentStationId": null
  },
  {
    "id": "Gaisburg:9.21575:48.78381",
    "name": "Gaisburg",
    "districtId": "ost",
    "latitude": 48.78381,
    "longitude": 9.215745,
    "source": "MobiData BW GTFS",
    "locationType": "stop",
    "platformCount": 1,
    "parentStationId": null
  },
  {
    "id": "Gaußstraße:9.14807:48.78004",
    "name": "Gaußstraße",
    "districtId": "west",
    "latitude": 48.78004,
    "longitude": 9.148066,
    "source": "MobiData BW GTFS",
    "locationType": "stop",
    "platformCount": 1,
    "parentStationId": null
  },
  {
    "id": "Gaußstraße:9.14818:48.77872",
    "name": "Gaußstraße",
    "districtId": "west",
    "latitude": 48.77872,
    "longitude": 9.148182,
    "source": "MobiData BW GTFS",
    "locationType": "stop",
    "platformCount": 1,
    "parentStationId": null
  },
  {
    "id": "Gehrenwald:9.25894:48.78977",
    "name": "Gehrenwald",
    "districtId": "untertuerkheim",
    "latitude": 48.789772,
    "longitude": 9.2589445,
    "source": "MobiData BW GTFS",
    "locationType": "stop",
    "platformCount": 1,
    "parentStationId": null
  },
  {
    "id": "Gehrenwald:9.25956:48.79017",
    "name": "Gehrenwald",
    "districtId": "untertuerkheim",
    "latitude": 48.790173,
    "longitude": 9.259556,
    "source": "MobiData BW GTFS",
    "locationType": "stop",
    "platformCount": 1,
    "parentStationId": null
  },
  {
    "id": "Geibelstraße:9.14151:48.78129",
    "name": "Geibelstraße",
    "districtId": "west",
    "latitude": 48.78129,
    "longitude": 9.141508,
    "source": "MobiData BW GTFS",
    "locationType": "stop",
    "platformCount": 1,
    "parentStationId": null
  },
  {
    "id": "Geibelstraße:9.14235:48.78138",
    "name": "Geibelstraße",
    "districtId": "west",
    "latitude": 48.78138,
    "longitude": 9.142352,
    "source": "MobiData BW GTFS",
    "locationType": "stop",
    "platformCount": 1,
    "parentStationId": null
  },
  {
    "id": "Generationenhaus:9.15921:48.84919",
    "name": "Generationenhaus",
    "districtId": "stammheim",
    "latitude": 48.849186,
    "longitude": 9.159214,
    "source": "MobiData BW GTFS",
    "locationType": "stop",
    "platformCount": 1,
    "parentStationId": null
  },
  {
    "id": "Generatorstraße:9.10524:48.82491",
    "name": "Generatorstraße",
    "districtId": "weilimdorf",
    "latitude": 48.82491,
    "longitude": 9.105243,
    "source": "MobiData BW GTFS",
    "locationType": "stop",
    "platformCount": 1,
    "parentStationId": null
  },
  {
    "id": "Generatorstraße:9.10567:48.82506",
    "name": "Generatorstraße",
    "districtId": "weilimdorf",
    "latitude": 48.82506,
    "longitude": 9.105665,
    "source": "MobiData BW GTFS",
    "locationType": "stop",
    "platformCount": 1,
    "parentStationId": null
  },
  {
    "id": "Gerlinger Straße:9.08644:48.81452",
    "name": "Gerlinger Straße",
    "districtId": "weilimdorf",
    "latitude": 48.81452,
    "longitude": 9.086441,
    "source": "MobiData BW GTFS",
    "locationType": "stop",
    "platformCount": 1,
    "parentStationId": null
  },
  {
    "id": "Gerlinger Straße:9.08516:48.81453",
    "name": "Gerlinger Straße",
    "districtId": "weilimdorf",
    "latitude": 48.814526,
    "longitude": 9.085165,
    "source": "MobiData BW GTFS",
    "locationType": "stop",
    "platformCount": 1,
    "parentStationId": null
  },
  {
    "id": "Gerlinger Straße:9.08709:48.81382",
    "name": "Gerlinger Straße",
    "districtId": "weilimdorf",
    "latitude": 48.813816,
    "longitude": 9.087088,
    "source": "MobiData BW GTFS",
    "locationType": "stop",
    "platformCount": 1,
    "parentStationId": null
  },
  {
    "id": "Geroksruhe:9.20115:48.76622",
    "name": "Geroksruhe",
    "districtId": "ost",
    "latitude": 48.766224,
    "longitude": 9.201147,
    "source": "MobiData BW GTFS",
    "locationType": "station",
    "platformCount": 1,
    "parentStationId": null
  },
  {
    "id": "de:08111:126_Parent",
    "name": "Geroksruhe",
    "districtId": "ost",
    "latitude": 48.766205,
    "longitude": 9.201084,
    "source": "MobiData BW GTFS",
    "locationType": "stop",
    "platformCount": 5,
    "parentStationId": "de:08111:126_Parent"
  },
  {
    "id": "Geschwister-Scholl-Gymnasium:9.22068:48.73766",
    "name": "Geschwister-Scholl-Gymnasium",
    "districtId": "sillenbuch",
    "latitude": 48.737663,
    "longitude": 9.220685,
    "source": "MobiData BW GTFS",
    "locationType": "stop",
    "platformCount": 1,
    "parentStationId": null
  },
  {
    "id": "Gewerbestraße:9.12087:48.72192",
    "name": "Gewerbestraße",
    "districtId": "moehringen",
    "latitude": 48.72192,
    "longitude": 9.120865,
    "source": "MobiData BW GTFS",
    "locationType": "stop",
    "platformCount": 1,
    "parentStationId": null
  },
  {
    "id": "Giebel:9.08790:48.80263",
    "name": "Giebel",
    "districtId": "weilimdorf",
    "latitude": 48.80263,
    "longitude": 9.087905,
    "source": "MobiData BW GTFS",
    "locationType": "station",
    "platformCount": 1,
    "parentStationId": null
  },
  {
    "id": "de:08111:144_Parent",
    "name": "Giebel",
    "districtId": "weilimdorf",
    "latitude": 48.802773,
    "longitude": 9.087609,
    "source": "MobiData BW GTFS",
    "locationType": "stop",
    "platformCount": 5,
    "parentStationId": "de:08111:144_Parent"
  },